id,name,long,lat,alt
74207124201,GRAY AFF AIRPORT,-122.58333031583183,47.08333031583183,0
04018016201,KEFLAVIK NAVAL AIR STATION,-22.599999999999994,63.96666968416818,0
72292593117,NALF/F. SHERMAN FLD ARPT,-118.58805974652986,33.02333031583183,0
01055099999,FRUHOLMEN FYR,23.98333333333332,71.1,0
01059099999,BANAK,24.97348923757795,70.06881412190705,0
01078099999,SLETTNES FYR,28.23333333333332,71.1,0
91765061705,TAFUNA/PAGO PAGO INTERNATIONAL AP,-170.7136099376383,-14.33056024944679,0
01088699999,SLEIPNER A OIL PLATFORM,1.9000000000000057,58.366666666666674,0
01107099999,ROST (NOR-AFB),12.099999999999994,67.51666666666668,0
01112099999,BRONNOY,12.21750050291692,65.46111144638905,0
01167099999,SORTLAND,15.416666666666657,68.69999999999999,0
01180099999,HARSTAD,16.53333333333333,68.80000000000001,0
01212099999,ONA II,6.533333333333331,62.866666666666674,0
01237099999,HITRA,9.116666666666674,63.51666666666668,0
01238099999,FOKSTUA II,9.283333333333331,62.116666666666674,0
01250099999,FOLLDAL-FREDHEIM,10.0,62.133333333333326,0
01262099999,NORDOYAN FYR,10.550000000000011,64.80000000000001,0
01287099999,SOLENDET,11.816666666666663,62.68333333333334,0
01300599999,STATFJORD OIL RIG,1.8330004023335391,61.21699959766647,0
01308099999,FURUNESET,5.050000000000011,61.30000000000001,0
01317099999,BERGEN/FLORIDA,5.333333333333343,60.383333333333326,0
01320099999,SANDANE/ANDA,6.116666666666674,61.83333333333334,0
01337099999,VOSSEVANGEN,6.433333333333337,60.633333333333326,0
01340099999,FET I EIDFJORD,7.280000000000001,60.41999999999999,0
01362099999,JUVVASSHOE,8.366666666666674,61.66666666666666,0
01364099999,FILEFJELL,8.116666666666674,61.18333333333334,0
01365099999,BEITOSTOLEN II,8.916666666666657,65.25,0
01375099999,KVITFJELL,10.133333333333326,61.46666666666667,0
01380099999,VENABU,10.116666666666674,61.650000000000006,0
01387099999,FAVANG,10.183333333333337,61.44999999999999,0
01412099999,OBRESTAD,5.566666666666663,58.650000000000006,0
01419099999,LIARVATN,6.116666666666674,59.05000000000001,0
01425099999,EIK HOVE,6.51666666666668,58.51666666666668,0
01426099999,EIGEROYA,5.866666666666674,58.43333333333334,0
01447099999,HOYDALSMO II,8.199999999999989,59.5,0
01450099999,MOSSTRAND II,8.183333333333337,59.83333333333334,0
01455099999,TVEITSUND,8.51666666666668,59.03333333333333,0
01466099999,KJELLER AP,11.033333333333331,59.96666666666667,0
01480099999,DRAMMEN BERSKOG,10.133333333333326,59.75,0
01482599999,TORP,10.25862804264736,59.18670287668476,0
01494099999,RYGGE,10.785556226111453,59.37888855361095,0
02044099999,KIRUNA,20.336764232548774,67.82198551599276,0
02101099999,HEMAVAN,15.082778113055724,65.80611144638905,0
02123099999,JAKKVIK,17.099999999999994,66.31666666666666,0
47679043319,ATSUGI US NAVAL AIR STATION,139.45,35.45,0
78543011640,CYRIL E KING AIRPORT,-64.98,18.336299537316435,0
99999903033,MORIARTY AIRPORT,-106.0,34.98472037819353,0
99999903755,GARRETT COUNTY AIRPORT,-79.33943975055321,39.58027962180648,0
01003099999,HORNSUND,15.5,77.0,0
01006099999,EDGEOYA,22.816666666666663,78.25,0
01008099999,LONGYEAR,15.46555622611146,78.24611144638905,0
01010099999,ANDOYA,16.144167169583596,69.29250050291691,0
01015099999,HEKKINGEN FYR,17.833333333333343,69.6,0
02589099999,GOTSKA SANDON,19.19999999999999,58.400000000000006,0
02602099999,HALLANDSASEN,12.949999999999989,56.400000000000006,0
02615099999,FALSTERBO A,12.816666666666663,55.383333333333326,0
02622099999,LJUNGBY,13.883333333333326,56.849999999999994,0
02625099999,SKILLINGE,14.316666666666663,55.48333333333332,0
02636099999,STURUP,13.371638503319247,55.530193120096556,0
02670099999,KALMAR,16.30000000000001,56.68333333333334,0
02766099999,ILOMANTSI POTSONVAARA,31.05000000000001,63.150000000000006,0
02807599999,ENONTEKIO,23.424322067994353,68.36258599879301,0
02850099999,VARKAUS KOLSUANNIEMI,27.900000000000006,62.31666666666666,0
02857099999,INARI ANGELI LINTUPUOLISELKA,25.73333333333332,68.9,0
02859099999,PUOLANKA PALJAKKA,28.05000000000001,64.66666666666666,0
02903099999,KRUUNUPYY,23.143131160732253,63.72117179641924,0
02944099999,TAMPERE PIRKKALA,23.604392476362904,61.414147052906856,0
02946099999,JAMSA HALLI LENTOASEMANTIE,24.816666666666663,61.866666666666674,0
02978099999,HELSINKI KAISANIEMI,24.94999999999999,60.18333333333334,0
02998099999,HELSINKI KUMPULA,24.96666666666667,60.19999999999999,0
03008099999,FAIR ISLE,-1.6333333333333258,59.53333333333333,0
03063099999,AVIEMORE,-3.833333333333343,57.19999999999999,0
03080099999,ABOYNE NO2,-2.833333333333343,57.08333333333334,0
03091099999,DYCE,-2.1977781130557332,57.20194427680548,0
02130099999,ROPARUDDEN,16.416666666666657,66.48333333333332,0
02135099999,BURESJON,17.866666666666674,65.56666666666666,0
02184099999,PAHAROVA,22.333333333333343,66.81666666666666,0
02245099999,VILHELMINA,16.849999999999994,64.58333333333334,0
02245599999,LYCKSELE,18.716219070609526,64.54832226916113,0
02261099999,LYCKSELE,18.71666666666667,64.55000000000001,0
02308099999,TANNAS,12.666666666666657,62.44999999999999,0
02319099999,BORTNAN,13.849999999999994,62.75,0
02325099999,KLOVSJOHOJDEN,14.150000000000006,62.5,0
02327099999,SVEG A,14.400000000000006,62.05000000000001,0
02338099999,EDSBYN,15.716666666666669,61.366666666666674,0
02347099999,DELSBO,16.55000000000001,61.83333333333334,0
02443099999,ENKOPING,17.116666666666674,59.650000000000006,0
02464099999,BROMMA,17.941649567491453,59.35437235968618,0
02498099999,SVENSKA HOGARNA A,19.5,59.44999999999999,0
02505099999,MASESKAR,11.333333333333343,58.099999999999994,0
02512099999,SAVE,11.870372158519416,57.77472238986118,0
02539099999,ULLARED,12.783333333333331,57.116666666666674,0
02550099999,JONKOPING,14.06873063769865,57.75759404546369,0
02554099999,KETTSTAKA,15.033333333333331,58.71666666666667,0
02556099999,HAGSHULT,14.137221886944275,57.292221886944276,0
02567099999,LANDSORT,17.866666666666674,58.75,0
03969099999,DUBLIN,-6.270075437537713,53.42133272983304,0
04101099999,BJARGTANGAR,-24.51666666666668,65.5,0
04109099999,THVERFJALL,-23.316666666666663,66.05000000000001,0
04126099999,GRUNDARTANGI,-21.78333333333333,64.35,0
04127099999,BOLUNGARVIK,-23.25,66.16666666666666,0
04156099999,HVERAVELLIR,-19.566666666666663,64.86666666666667,0
04231099999,SONDRE STROMFJORD,-50.68932508549588,67.01696942265139,0
04272099999,JULIANEHAAB,-46.05000000000001,60.71666666666667,0
06009099999,AKRABERG,-6.666666666666657,61.400000000000006,0
06017099999,HORNS REV B HELIDECK,7.6238060752363594,55.60016998591831,0
06022399999,TYRA E OIL PLATFORM HELIPAD,4.802078052705696,55.721521826594255,0
06049099999,HALD V,10.099999999999994,56.56666666666666,0
06104099999,BILLUND,9.151778314222497,55.7403218668276,0
06119099999,KEGNAES,9.98333333333332,54.849999999999994,0
06138099999,LANGOE,11.0,54.81666666666666,0
06193099999,HAMMER ODDE FYR,14.76666666666668,55.30000000000001,0
06269399999,VLISSINGEN,3.5999999999999943,51.44999999999999,0
06283099999,HUPSEL AWS,6.650000000000006,52.06666666666666,0
06321099999,EURO PLATFORM,3.2833333333333314,52.0,0
06330099999,HOEK VAN HOLLAND,4.099999999999994,51.98333333333332,0
03158099999,CHARTERHALL,-2.3833333333333258,55.69999999999999,0
03210099999,ST BEES HEAD NO.2,-3.5999999999999943,54.51666666666668,0
03305099999,CAPEL CURIG NO3,-3.933333333333337,53.099999999999994,0
03323399999,LIVERPOOL,-2.849722389861199,53.33361094347214,0
03330099999,LEEK THORNCLIFFE,-1.98333333333332,53.133333333333326,0
03377099999,WADDINGTON,-0.5238111044055529,53.16616676725005,0
03379099999,CRANWELL,-0.48324180245424486,53.030350030175015,0
03391099999,CONINGSBY,-0.166013880506938,53.093014484007256,0
03469099999,HOLBEACH (AUT),0.15000000000000568,52.866666666666674,0
03482099999,MARHAM,0.5506920136793383,52.64835345001006,0
03488099999,WEYBOURNE,1.1333333333333258,52.94999999999999,0
03492099999,NORWICH,1.2827781130557128,52.675832830416425,0
03503099999,TRAWSGOED,-3.9499999999999886,52.349999999999994,0
03507099999,SENNYBRIDGE NO2,-3.6166666666666742,52.06666666666666,0
03560099999,BEDFORD,-0.48333333333332007,52.21666666666667,0
03609099999,MUMBLES HEAD,-3.98333333333332,51.56666666666666,0
03660099999,HIGH WYCOMBE HQAIR,-0.8000000000000114,51.68333333333334,0
03766399999,BIGGIN HILL,0.03250050291691764,51.330832830416426,0
03769099999,CHARLWOOD,-0.38333333333332575,51.23333333333332,0
03784099999,GRAVESEND-BROADNESS,0.30000000000001137,51.46666666666667,0
03827099999,PLYMOUTH/MOUNTBATTE,-4.116666666666674,50.349999999999994,0
03865099999,SOUTHAMPTON,-1.3568034600683916,50.9502605109636,0
03894099999,GUERNSEY,-2.601969422651365,49.43495574331121,0
03904099999,CASTLEDERG,-7.583333333333343,54.69999999999999,0
03908499999,LONDONDERRY EGLINTON,-7.161111446389043,55.04277811305573,0
07118099999,LANNION,-3.4716556024944794,48.75437839468918,0
07150099999,LE BOURGET,2.4413890565278678,48.96944377388854,0
07197099999,MEYENHEIM,7.400000000000006,47.91666666666666,0
07255099999,BOURGES,2.3702776101387997,47.05805572319454,0
07317099999,BISCAROSSE / PARENTIS,-1.25,44.43333333333334,0
07317599999,BRAY,2.697661436330719,49.971530879098765,0
07476099999,CAUMONT,4.901830617581965,43.9073003419835,0
07486099999,SAINT GEOIRS,5.329375377187688,45.362944075638694,0
07530099999,ROUMANIERE,0.5186109434721402,44.82527861597265,0
07549099999,AURILLAC,2.421944276805476,44.89138805069402,0
07579099999,CARITAT,4.866716958358467,44.14048078857374,0
07638099999,BEZIERS VIAS,3.3499999999999943,43.31666666666666,0
08000199999,MADEIRA,-16.774452826393087,32.69788875477771,0
08002099999,A CORUNA,-8.377256085294704,43.302060953530486,0
08042099999,SANTIAGO,-8.415143834238592,42.896332729833034,0
08048099999,ORENSE,-7.866666666666674,42.33333333333334,0
08175099999,REUS,1.167171595252455,41.14739187286261,0
08373099999,IBIZA,1.3731170790585452,38.8728575739288,0
08430099999,MURCIA,-1.1666666666666572,38.0,0
08451099999,JEREZ,-6.060110641721991,36.74462180647757,0
06432599999,CASTEAU/HELI (MET),3.9799999999999898,50.5,0
06458099999,BEAUVECHAIN,4.768333333333345,50.75860993763831,0
06477099999,DIEPENBEEK,5.449999999999989,50.91666666666666,0
06479099999,KLEINE BROGEL,5.469999999999999,51.16833333333332,0
06605099999,CHASSERAL,7.066666666666663,47.133333333333326,0
06606099999,CRESSIER,7.066666666666663,47.05000000000001,0
06614099999,MEIRINGEN,8.110000000000014,46.74333333333334,0
06619099999,BULLET-LA FRETAZ,6.583333333333343,46.83333333333334,0
06630499999,SAMEDAN,9.884105813719572,46.53407463287064,0
06635099999,KOPPIGEN,7.616666666666674,47.133333333333326,0
06644099999,MOSEN,8.23333333333332,47.25,0
06645099999,RUENENBERG,7.883333333333326,47.43333333333334,0
06655099999,ENGELBERG,8.416666666666657,46.81666666666666,0
06669099999,LAEGEREN,8.400000000000006,47.48333333333332,0
06681199999,ST GALLEN ALTENRHEIN,9.56077549788776,47.485033192516596,0
06712099999,AIGLE,6.916666666666657,46.33333333333334,0
06720099999,SION,7.326764232548783,46.21959163146249,0
06730099999,JUNGFRAUJOCH,7.98333333333332,46.55000000000001,0
06734099999,INTERLAKEN,7.866666666666674,46.66666666666666,0
06990099999,VADUZ,9.51666666666668,47.133333333333326,0
07010099999,DUNKERQUE,2.333333333333343,51.05000000000001,0
07020099999,LA HAGUE,-1.9333333333333371,49.71666666666667,0
07040099999,DIEPPE,1.0999999999999943,49.93333333333334,0
07106099999,LANDIVISIAU,-4.15164152082076,48.53025849929591,0
11185099999,MOENICHKIRCHEN,16.03333333333333,47.51666666666668,0
11213099999,VILLACH,13.883333333333326,46.616666666666674,0
11232099999,FEISTRITZ OB BLEIBURG,14.76666666666668,46.56666666666666,0
11244099999,BAD GLEICHENBERG,15.900000000000006,46.866666666666674,0
11302099999,DORNBIRN,9.73333333333332,47.43333333333334,0
11316099999,PITZTALER GLETSCHER,10.883333333333326,46.93333333333334,0
11328099999,ACHENKIRCH,11.699999999999989,47.51666666666668,0
11346099999,RAURIS,13.0,47.21666666666667,0
11352099999,FRANKENMARKT,13.416666666666657,47.98333333333332,0
11355099999,WINDISCHGARSTEN,14.333333333333343,47.73333333333332,0
11423299999,KBELY,14.543642124321053,50.12136692818348,0
11457099999,CHURANOV,13.616666666666674,49.06666666666666,0
11487099999,KOCELOVICE,13.833333333333343,49.46666666666667,0
11502099999,USTI NAD LABEM,14.033333333333331,50.68333333333334,0
11603099999,LIBEREC,15.01666666666668,50.76666666666668,0
11653099999,SNEZKA,15.73333333333332,50.73333333333332,0
11659099999,PRIBYSLAV,15.76666666666668,49.58333333333334,0
11692099999,NAMEST,16.12492456246227,49.165832830416406,0
11801099999,MALACKY,17.150000000000006,48.400000000000006,0
11819099999,JASLOVSKE BOHUNICE,17.666666666666657,48.48333333333332,0
11841099999,ZILINA/HRICOV,18.616666666666674,49.23333333333332,0
11867099999,PRIEVIDZA,18.599999999999994,48.76666666666668,0
11880099999,DUDINCE,18.866666666666674,48.16666666666666,0
11918099999,LIESEK,19.683333333333337,49.366666666666674,0
11927099999,LUCENEC,19.73333333333332,48.33333333333334,0
11930099999,LOMNICKY STIT,20.21666666666667,49.19999999999999,0
11938099999,TELGART,20.183333333333337,48.849999999999994,0
11955099999,PRESOV,21.316666666666663,49.03333333333333,0
12105499999,TOMASZOW,20.01666666666668,51.53333333333333,0
12120099999,LEBA,17.53333333333333,54.75,0
12146099999,PRUSZCZ GDANSKI,18.67158318245825,54.24797223898611,0
12195099999,SUWALKI,22.94999999999999,54.133333333333326,0
12500099999,JELENIA GORA,15.800000000000011,50.900000000000006,0
12540099999,RACIBORZ,18.19999999999999,50.05000000000001,0
12766099999,JOSVAFO,20.53333333333333,48.48333333333332,0
12805099999,SOPRON,16.599999999999994,47.68333333333334,0
12825099999,PAPA,17.500750352041848,47.363972037819366,0
08509099999,LAJES,-27.090796620398322,38.76184168175416,0
08511099999,ANGRA DO HEROISMO (ACORES),-27.21666666666667,38.66666666666666,0
08541099999,SINES/MONTES CHAOS,-8.866666666666674,37.95,0
08561099999,BEJA/B. AEREA,-7.916666666666657,38.06666666666666,0
08562099999,BEJA,-7.9323969020317975,38.07890263528466,0
08568099999,PENHAS DOURADAS,-7.550000000000011,40.41666666666666,0
08579099999,LISBOA/GAGO COUTINHO,-9.133333333333326,38.76666666666668,0
10426099999,PADERBORN LIPPSTADT,8.61631663649166,51.61408871454435,0
10616299999,SIEGERLAND,8.082969221484603,50.7076584188292,0
10775099999,HOHENFELS AAF,11.836111446389054,49.21805572319454,0
11030099999,TULLN,16.111859786763233,48.321083283041645,0
11060099999,LINZ/STADT,14.283333333333331,48.30000000000001,0
11075099999,LANGENOIS (AUT),15.699999999999989,48.46666666666667,0
11082099999,GUMPOLDSKIRCHEN,16.28333333333333,48.03333333333333,0
11090099999,WEIN-DONAUFELD,16.433333333333337,48.25,0
11142099999,ST. JOHANN/PONGAU,13.183333333333337,47.31666666666666,0
11147099999,RADSTADT,13.449999999999989,47.383333333333326,0
11150099999,SALZBURG,13.004333132166579,47.79330416415209,0
11171099999,ST SEBASTIAN/MARIAZELL,15.300000000000011,47.80000000000001,0
15350099999,BUZAU,26.816666666666663,45.150000000000006,0
15366099999,BAILE HERCULANE,22.416666666666657,44.883333333333326,0
15410099999,DROBETA TURNU SEVERIN,22.633333333333326,44.633333333333326,0
15421099999,HENRI COANDA,26.08511868839267,44.57099175216254,0
15444099999,FETESTI,27.849999999999994,44.366666666666674,0
15445099999,CERNAVODA,28.05000000000001,44.349999999999994,0
15455099999,VIDELE,25.53333333333333,44.28333333333333,0
15640099999,SLIVEN *,26.333333333333343,42.66666666666666,0
16008099999,S. VALENTINO ALLA MUTA,10.533333333333331,46.75,0
16020099999,BOLZANO,11.326383021524833,46.4601941259304,0
16033099999,DOBBIACO,12.216666666666669,46.73333333333332,0
16052099999,PIAN ROSA (MTN TOP),7.699999999999989,45.93333333333334,0
16090099999,VILLAFRANCA,10.888533494266738,45.395706095353034,0
16108099999,RONCHI DEI LEGIONARI,13.472221886944283,45.827500502916905,0
16115099999,MALANOTTE MOUNTAIN,7.800000000000011,44.25,0
16134099999,CIMONE MOUNTAIN,10.699999999999989,44.19999999999999,0
16138099999,FERRARA (AUT),11.616666666666674,44.83333333333334,0
16140099999,BOLOGNA,11.288667270166968,44.53544357272179,0
16148099999,CERVIA,12.307202776101377,44.22417521625428,0
16170099999,FIRENZE,11.205099577549788,43.809952725809694,0
16242099999,FIUMICINO,12.250796620398319,41.804474954737486,0
16259199999,PARMA,10.29636692818346,44.82448300140817,0
16259299999,LEVALDIGI,7.623216656608321,44.54701870850934,0
16337099999,BONIFATI (CAPE),15.883333333333326,39.58333333333334,0
16400099999,USTICA ISLAND,13.183333333333337,38.69999999999999,0
16420099999,MESSINA,15.550000000000011,38.19999999999999,0
16460099999,CATANIA FONTANAROSSA,15.066400120700052,37.46678133172399,0
16475099999,COMISO,14.616666666666674,36.983333333333334,0
16520099999,ALGHERO,8.290772480386238,40.63213337356669,0
16546099999,DECIMOMANNU,8.97248139207403,39.354222490444585,0
16624099999,MEGAS ALEXANDROS INTL,24.61922349627841,40.91330617581974,0
12970099999,KECSKEMET,19.749222490444566,46.91750050291691,0
13174099999,KIKINDA,20.46666666666667,45.849999999999994,0
13272099999,BEOGRAD,20.309139006236165,44.81844397505532,0
13272599999,BEOGRAD/BATAJNICA,20.2575055320861,44.93533091933213,0
13285099999,VELIKO GRADISTE,21.51666666666668,44.75,0
13363099999,PLEVLJA,19.349999999999994,43.349999999999994,0
13376699999,UZICE-PONIKVE,19.69999999999999,43.900000000000006,0
13378099999,KOPAONIK,20.80000000000001,43.28333333333333,0
13577099999,LAZAROPOLE,20.69999999999999,41.53333333333333,0
13594099999,VINICA-PGC,22.5,41.883333333333326,0
14015099999,LJUBLJANA/BEZIGRAD,14.51666666666668,46.06666666666666,0
14241099999,ZAGREB,16.068777911888958,45.74293099979883,0
14246099999,VARAZDIN,16.381250251458454,46.29472440152887,0
14321099999,RAB,14.76666666666668,44.75,0
14370099999,SLAVONSKI BROD,18.0,45.16666666666666,0
14443099999,PALAGRUZA,16.26666666666668,42.400000000000006,0
14446099999,BRAC,16.6797193723597,43.28571917119291,0
14454099999,MAKARSKA,17.01666666666668,43.28333333333333,0
14652099999,BJELASNICA,18.26666666666668,43.71666666666667,0
15108099999,CEAHLAU TOACA,25.94999999999999,46.98333333333332,0
15111099999,ROMAN,26.916666666666657,46.96666666666667,0
15123099999,SARMASU,24.166666666666657,46.75,0
15124099999,BATOS,24.650000000000006,46.883333333333326,0
15127099999,JOSENI,25.51666666666668,46.69999999999999,0
15162099999,CAMPENI,23.05000000000001,46.366666666666674,0
15194099999,TARGU OCNA,26.650000000000006,46.26666666666668,0
15260099999,SIBIU,24.091341782337565,45.785597465298736,0
15300099999,BRASOV-GHIMBAV,25.53333333333333,45.69999999999999,0
16744399999,SANTORINI,25.479333132166573,36.39916918125125,0
17022399999,SAMANDIRA,29.21666666666667,41.0,0
17040099999,RIZE,40.51666666666668,41.03333333333333,0
17088099999,GUMUSHANE,39.46666666666667,40.46666666666667,0
17095099999,ERZURUM BOLGE,41.28333333333333,39.900000000000006,0
17099099999,AGRI,43.05000000000001,39.73333333333332,0
17118599999,SIVRIHISAR,31.365307785153902,39.45146851740091,0
17120099999,AKINCI,32.56562462281232,40.078918728626036,0
17128099999,ESENBOGA,32.99508348420841,40.12808187487428,0
17129099999,ETIMESGUT,32.68862200764434,39.94983101991551,0
17150099999,BALIKESIR,27.92595755381211,39.61925769462886,0
17180099999,DIKILI,26.883333333333326,39.06666666666666,0
17271099999,GAP MEYDAN,38.900000000000006,37.43333333333334,0
17292099999,MUGLA,28.366666666666674,37.21666666666667,0
17310099999,ALANYA,32.0,36.55,0
17330099999,SILIFKE,33.93333333333334,36.38333333333334,0
17370099999,ISKENDERUN,36.15400020116678,36.573472138402735,0
17375099999,FINIKE,30.150000000000006,36.3,0
28984099999,SUCINSK,70.21666666666667,52.94999999999999,0
26141099999,VALKE-MAARJA,26.23333333333332,59.133333333333326,0
26313099999,KOLKA,22.599999999999994,57.75,0
26416099999,SALDUS,22.5,56.68333333333334,0
26425099999,JELGAVA,23.73333333333332,56.650000000000006,0
26436099999,ZILANI,25.916666666666657,56.51666666666668,0
33000399999,LOZUVATKA INTL,33.21000000000001,48.04333333333332,0
33213099999,OVRUCH,28.78333333333333,51.31666666666666,0
33297099999,BRODY,25.150000000000006,50.099999999999994,0
33312099999,NOVOHRAD-VOLYNS'KYI,27.633333333333326,50.599999999999994,0
33466099999,MYRONIVKA,31.0,49.66666666666666,0
33717099999,BOBRYNETS',32.150000000000006,48.06666666666666,0
33862099999,VELYKA OLEKSANDRIVKA,33.28333333333333,47.31666666666666,0
34607099999,PRYSHYB,35.33333333333334,47.26666666666668,0
34609099999,KYRYLIVKA,36.33333333333334,47.33333333333334,0
34798099999,GANJUSHKINO,49.26666666666668,46.599999999999994,0
37514099999,AKHALTSIKHE,43.0,41.650000000000006,0
37785099999,ASHTARAK,44.46666666666667,40.28333333333333,0
37835599999,GABALA,47.73333333333332,40.81666666666666,0
37959099999,KAPAN,46.43333333333334,39.19999999999999,0
38001099999,AKTAU,51.09197847515591,43.860050291691806,0
38062099999,KZYL-ORDA,65.53333333333333,44.76666666666668,0
38178099999,AK-BAJTAL,64.33333333333334,43.150000000000006,0
38715099999,SHAHRISTANSKIJ PEREVAL,68.58333333333334,39.56666666666666,0
38763099999,GYZYLARBAT,56.28333333333333,38.98333333333332,0
38774099999,BAKHERDEN,57.41666666666666,38.43333333333334,0
40100099999,RAFIC HARIRI INTL,35.488388654194324,33.82093140213237,0
40179099999,BET DAGAN,34.81666666666666,32.0,0
35671099999,ZHEZKAZGAN,67.71666666666667,47.80000000000001,0
36856099999,KONYROLEN,79.31666666666666,44.26666666666668,0
36883099999,ILIYSKY,76.98333333333335,43.48333333333332,0
36911099999,TOKMAK,75.28333333333333,42.83333333333334,0
41184099999,RAS AL KHAIMAH INTL,55.93881713940857,25.61348320257494,0
41196099999,SHARJAH INTL,55.51715047274189,25.328574733454033,0
41218099999,AL AIN INTL,55.60916716958357,24.26166666666667,0
41249099999,QUMAIRA,56.19999999999999,23.933333333333337,0
41254099999,SAIQ,57.633333333333326,23.066666666666663,0
41265099999,IBRA,58.5,22.733333333333334,0
41274099999,GHABA CENTRAL/PRI,57.05000000000001,21.383000402333536,0
41573099999,MURREE,73.38333333333333,33.91666666666667,0
41718099999,KHANPUR,70.68333333333334,28.650000000000006,0
41781099999,MASROOR,66.93875276604305,24.893563669281832,0
41883099999,BOGRA,89.36666666666667,24.849999999999994,0
41895099999,SHAH MOKHDUM,88.61651076242202,24.437218869442773,0
41909099999,TANGAIL,89.93333333333334,24.25,0
41923099999,TEJGAON,90.3826885938443,23.77878294105814,0
41947099999,KHULNA,89.53333333333336,22.78333333333333,0
41992099999,COXS BAZAR,91.96388855361096,21.452193723596864,0
42071099999,AMRITSAR,74.79726413196539,31.709593643130148,0
42189099999,BAREILLY,79.45084188292094,28.422060953530476,0
42314099999,DIBRUGARH,95.01692214846105,27.48385334942668,0
42339099999,JODHPUR,73.04886944276805,26.25109233554616,0
42379099999,GORAKHPUR,83.4497083081875,26.73970830818749,0
42410099999,GUWAHATI INTL,91.58593944880306,26.106092335546165,0
40250099999,H4,38.194985918326296,32.5392174612754,0
40255099999,IRBID (MET),35.849999999999994,32.55,0
40296099999,GHOR SAFI,35.46666666666667,31.03333333333333,0
40340099999,AQABA KING HUSSEIN INTL,35.018066787366735,29.611619392476356,0
40362099999,RAFHA,43.49061355864012,29.626419231542954,0
40637099999,KHANAQIN,45.383333333333326,34.349999999999994,0
40650099999,BAGHDAD INTL AIRPORT,44.23333333333332,33.266666666666666,0
40655099999,AINALTAMER,44.71666666666667,32.55,0
40660099999,AZIZYAH,45.06666666666666,32.91666666666667,0
40666099999,ALI ALGHARBI,46.71666666666667,32.46666666666667,0
40674099999,SAMAWA,45.26666666666668,31.266666666666666,0
40676099999,NASIRIYA,46.23333333333332,31.016666666666666,0
40690099999,BASRAH AIRPORT,47.78333333333333,30.516666666666666,0
40701099999,MAKKO,44.43333333333334,39.33333333333334,0
40703699999,LAMERD,53.188794005230335,27.372743914705296,0
40703799999,KALALEH,55.44999999999999,37.38333333333334,0
40723099999,BOJNORD,57.30838865419432,37.49300341983505,0
40727099999,SAGHEZ,46.26666666666668,36.25,0
40730099999,IMAM KHOMEINI INTL,51.15222188694429,35.41611144638905,0
40762099999,TORBAT-HEYDARIEH,59.21666666666667,35.266666666666666,0
40853099999,BAFT,56.56666666666666,29.233333333333334,0
41061099999,WADI AL DAWASIR,45.199556427278225,20.504274793804058,0
41167099999,DUKHAN,50.75,25.400000000000006,0
43476099999,DIYATALAWA,80.96666666666664,6.816666666666663,0
44229099999,TARIAT,99.55000000000001,48.08333333333334,0
44266099999,TONHIL,93.89999999999998,46.31666666666666,0
44285099999,HUJIRT,102.76666666666665,46.900000000000006,0
44338099999,BOGD,102.16666666666669,44.650000000000006,0
44354099999,SAINSHAND,110.11666666666667,44.900000000000006,0
44373099999,DALANZADGAD,104.41666666666669,43.58333333333334,0
44385099999,HANBOGD,107.16666666666669,43.19999999999999,0
44406099999,DIPAYAL,80.94999999999999,29.25,0
44418099999,NEPALGUNJ AIRPORT,81.66666666666669,28.099999999999994,0
46740099999,KAOHSIUNG INTL,120.35000603500299,22.577094146047074,0
46770099999,CHING CHUAN KANG AB,120.62058036612353,24.264668074834034,0
47101099999,CHUNCHEON,127.73333333333335,37.900000000000006,0
47108099999,SEOUL CITY,126.96666666666664,37.56666666666666,0
47128099999,CHEONGJU INTL,127.49911888955944,36.716600281633475,0
47165099999,MOKPO,126.38333333333333,34.81666666666666,0
47168099999,YEOSU,127.75,34.733333333333334,0
42754099999,DEVI AHILYABAI HOLKAR,75.80108630054315,22.721786360893176,0
42867099999,DR AMBEDKAR INTL,79.04718265942466,21.09219171192919,0
42921099999,NASIK CITY,73.81666666666666,19.96666666666667,0
43003099999,CHHATRAPATI SHIVAJI INTL,72.86791892979281,19.08868638100985,0
43198099999,BELGAUM,74.61829209414606,15.85928585797626,0
43226099999,HONAVAR,74.44999999999999,14.283333333333331,0
43233099999,CHITRADURGA,76.43333333333334,14.233333333333334,0
43399099999,PARO,89.4246057131362,27.403191510762426,0
43441099999,KURUNEGALA,80.36666666666667,7.466666666666669,0
48376099999,TAK,99.25335043250857,16.89598873466103,0
48381099999,KHON KAEN,102.78366123516395,16.466628444980884,0
48419099999,PATHUMTHANI,100.61666666666667,14.099999999999994,0
48433099999,SURIN AGROMET,103.44999999999999,14.88333333333334,0
48568099999,SONGKHLA,100.60803057734864,7.186564071615365,0
48581099999,YALA AGROMET,101.28333333333336,6.516666666666666,0
48620099999,SITIAWAN,100.69999999999999,4.216666666666669,0
48647099999,SULTAN ABDUL AZIZ SHAH INTL,101.54933313216657,3.130583383625023,0
48650099999,KUALA LUMPUR INTL,101.70991651579158,2.7455783544558443,0
48672699999,KERTEH,103.4267561858781,4.53722188694428,0
48699099999,SELETAR,103.86765338966,1.4169503118084918,0
48848099999,DONG HOI,106.60000000000002,17.483333333333334,0
48870099999,QUY NHON,109.21666666666664,13.766666666666666,0
48877099999,NHA TRANG,109.19999999999999,12.25,0
48918099999,CON SON,106.60000000000002,8.683333333333337,0
48927099999,VIENGSAY,104.23333333333335,20.41666666666667,0
48935099999,PLAINE DES JARRES (XIENGKHOUANG),103.13333333333333,19.46666666666667,0
48938099999,SAYABOURY,101.73333333333335,19.233333333333334,0
48946099999,THAKHEK,104.64999999999998,17.38333333333334,0
48947099999,SAVANNAKHET,104.75953128143232,16.556594246630453,0
48953099999,SEKONG,106.68333333333334,15.333333333333329,0
50353099999,HUMA,126.63333333333333,51.73333333333332,0
50788099999,FUJIN,131.98333333333335,47.23333333333332,0
50844099999,TAILAI,123.44999999999999,46.400000000000006,0
51495099999,SHISANJIANFANG,91.73333333333335,43.21666666666667,0
47409099999,ABASHIRI,144.28333333333336,44.01666666666668,0
47423099999,MURORAN/YAKUMO,140.98333333333335,42.31666666666666,0
47515099999,HACHINOHE,141.46632468316233,40.55644739489037,0
47581099999,HACHINOHE,141.51666666666665,40.53333333333333,0
47602099999,AIKAWA,138.23333333333335,38.03333333333333,0
47606099999,FUSHIKI,137.05,36.8,0
47616099999,FUKUI,136.21666666666664,36.05,0
47624099999,MAEBASHI,139.06666666666666,36.400000000000006,0
47634099999,GIFU,136.86966706900023,35.394077650372154,0
47636099999,NAGOYA,136.96666666666664,35.16666666666667,0
47653099999,IRAKO,137.10000000000002,34.63333333333334,0
47662099999,TOKYO,139.76666666666665,35.68333333333334,0
47670099999,YOKOHAMA,139.64999999999998,35.43333333333334,0
47709099999,MATSUMOTO,137.9226694830014,36.16675819754576,0
47742099999,SAKAI,133.23333333333335,35.55,0
47754099999,HAGI,131.39999999999998,34.41666666666667,0
47771099999,OSAKA INTL,135.43822168577753,34.78552806276403,0
47788099999,HOFU,131.54919432709715,34.03466706900021,0
47789099999,HIROSHIMA,132.91944377388853,34.43611144638906,0
47807099999,FUKUOKA,130.38333333333333,33.58333333333333,0
47827099999,KAGOSHIMA,130.55,31.549999999999997,0
47918099999,ISHIGAKI,124.18698249849126,24.344525246429285,0
47927699999,SHIMOJISHIMA,125.14472238986122,24.826666666666668,0
47945099999,MINAMI DAITO,131.26349426674716,25.84653289076644,0
48019099999,BHAMO,97.19999999999999,24.266666666666666,0
48020099999,MAWLAIK,94.41666666666669,23.63333333333334,0
48035099999,LASHIO,97.75,22.933333333333337,0
48085099999,GWA,94.58333333333331,17.58333333333333,0
48101099999,PHYAPON,95.66666666666669,16.266666666666666,0
48302099999,DOI ANG KHANG,99.03333333333336,19.91666666666667,0
87784099999,SAN ANTONIO OESTE AERO,-65.1,-40.78333333333333,0
88889099999,MOUNT PLEASANT,-58.44722188694428,-51.82277710722189,0
88900099999,BIRD ISLAND,-38.05000000000001,-54.0,0
94839099999,CHARLTON,143.35000000000002,-36.28333333333333,0
94840099999,MORTLAKE RACECOURSE,142.76666666666665,-38.06666666666667,0
94850099999,KING ISLAND AIRPORT,143.88333333333333,-39.88333333333333,0
94854099999,AVALON  AIRPORT,144.46666666666664,-38.03333333333333,0
94859099999,REDESDALE,144.53333333333336,-37.016666666666666,0
94875099999,SHEPPARTON AIRPORT,145.39999999999998,-36.43333333333333,0
94881099999,EILDON FIRE TOWER,145.83333333333331,-37.21666666666667,0
94889099999,WANGARATTA AERO,146.3,-36.416666666666664,0
94891099999,LATROBE VALLEY AIRPORT,146.46666666666664,-38.21666666666667,0
94895599999,AVALON,144.46944377388854,-38.03944377388856,0
99737999999,SAND ISLAND MIDWAY,-117.35,28.200000000000003,0
99739699999,MOORED BUOY 41040,-53.019999999999996,14.5,0
99739899999,BUOY 42055 / BAY OF CAMPECHE,-94.05,22.019999999999996,0
81717099999,PREGUICAS,-43.69999999999999,-2.5999999999999943,0
89059099999,BASE BERNARDO O'HIGGINS,-56.68333333333334,-63.31666666666666,0
89504099999,TROLL IN ANTARKTIS,2.3833333333333258,-72.01666666666667,0
94915099999,PERISHER VALLEY AWS,148.39999999999998,-36.4,0
94925099999,TUGGERANONG ISABELLA PLAINS,149.10000000000002,-35.416666666666664,0
94939099999,MONTAGUE ISLAND LIGHHOUSE,150.21666666666664,-36.25,0
94970099999,HOBART (ELLERSLIE ROAD),147.33333333333331,-42.88333333333333,0
94974099999,CAPE SORELL,145.16666666666669,-42.2,0
94983099999,LARAPUNA (EDDYSTONE POINT),148.35000000000002,-41.0,0
94987099999,FRIENDLY BEACHES,148.28333333333336,-42.0,0
82030599999,MARILIA,-49.926400120700066,-22.196891973445986,0
82107099999,SAO GABRIEL DA CACHOEIRA AERO,-66.96666666666667,-0.11666666666666003,0
82111099999,EDUARDO GOMES INTL,-60.049721384027364,-3.0386109434721362,0
82353099999,ALTAMIRA,-52.25397807282236,-3.253905652786159,0
89674099999,WILLIAMS FIELD,167.05657211828606,-77.86735767451216,0
89767099999,G3,69.86666666666667,-70.9,0
95317099999,MARBLE BAR,119.75,-21.183333333333337,0
95551099999,TOOWOOMBA AIRPORT,151.91666666666669,-27.549999999999997,0
95610099999,KALAMUNDA BICKLEY,116.13333333333333,-32.016666666666666,0
95611099999,BUSSELTON AERO,115.39999999999998,-33.68333333333333,0
95612099999,GINGIN AERO,115.86666666666667,-31.46666666666667,0
95621099999,COLLIE EAST,116.16666666666669,-33.36666666666667,0
82599099999,AUGUSTO SEVERO,-35.24771675719171,-5.9114172198752755,0
82917099999,PRESIDENTE MEDICI,-67.89407161536914,-9.869158117079053,0
95635099999,HOPETOWN NORTH,120.13333333333333,-33.93333333333333,0
95644099999,MUNGLINUP WEST,120.69999999999999,-33.55,0
95654099999,WUDINNA AERO,135.45,-33.05,0
95658099999,OLYMPIC DAM AERODROME,136.88333333333333,-30.483333333333334,0
95666099999,PORT AUGUSTA ARID LANDS,137.71666666666664,-32.516666666666666,0
95667099999,CLARE HIGH SCHOOL,138.60000000000002,-33.81666666666667,0
95676099999,EDINBURGH,138.62083283041642,-34.70249949708308,0
95704099999,GRIFFITH AIRPORT AWS,146.06666666666666,-34.25,0
95710099999,TRANGIE RESEARCH STATION,147.95,-31.983333333333334,0
95721099999,COWRA AIRPORT AWS,148.64999999999998,-33.85,0
95747099999,MURRURUNDI GAP AWS,150.8,-31.733333333333334,0
95767099999,LAKE MACQUARIE AWS,151.46666666666664,-33.083333333333336,0
83248099999,DEPUTADO LUIS EDUARDO MAGALHAES,-38.33104405552203,-12.91099376383022,0
91551099999,SOLA/VANUA LAVA ISL,167.55,-13.849999999999994,0
91555099999,LAMAP/MALEKOULA ISL,167.8,-16.41666666666667,0
91583099999,POINDIMIE (NLLE-CALEDONIE),165.31666666666666,-20.933333333333337,0
91596099999,ILE DES PINS,167.4559686179843,-22.588856366928184,0
91612099999,BONRIKI AIRPORT,173.14999999999998,1.38333333333334,0
91652099999,UDU POINT AWS,-179.98333333333332,-16.13333333333334,0
91699099999,ONO-I-LAU AWS,-178.71666666666667,-20.66666666666667,0
95815099999,MUNKORA,140.31666666666666,-36.1,0
95825099999,CASTERTON,141.33333333333331,-37.583333333333336,0
95827099999,KANAGULK,141.8,-37.11666666666667,0
95837099999,RUTHERGLEN RESEARCH,146.5,-36.1,0
95909099999,THREDBO AWS,148.28333333333336,-36.5,0
95931099999,BEGA AWS,149.81666666666666,-36.666666666666664,0
83419099999,BASE AEREA,-48.964266747133365,-16.22915308790988,0
83649099999,GOIABEIRAS,-40.28638905652787,-20.25805572319453,0
92004099999,WEWAK INTL,143.66918628042646,-3.583828203580765,0
96001199999,SRI AMAN / SIMANGGAN,111.44999999999999,1.2166666666666686,0
96207099999,KERINCI/DEPATI PARB,101.36666666666667,-2.7666666666666657,0
96249099999,H AS HANANDJOEDDIN,107.75491651579159,-2.7457221886944296,0
96295099999,RADIN INTEN II,105.17893884530275,-5.2423385636692785,0
96471099999,KOTA KINABALU INTL,116.05118084892376,5.937207805270575,0
96557099999,NANGAPINOH,111.78333333333336,-0.3499999999999943,0
96633099999,SEPINGGAN,116.89447797223897,-1.2682719774693254,0
96655099999,TJILIK RIWUT,113.9426614363307,-2.225127740897207,0
83671099999,CAMPO FONTENELLE,-47.33476362904847,-21.984561456447395,0
83708099999,GUARATINGUETA,-45.2047777107222,-22.791608328304164,0
83780099999,CONGONHAS,-46.655375176020925,-23.626691812512576,0
83842099999,BACACHERI,-49.23203580768458,-25.40507845503923,0
93292099999,GISBORNE,177.97833333333335,-38.663333333333334,0
96837099999,SEMARANG,110.41666666666669,-6.966666666666669,0
96933099999,SURABAYA/PERAK,112.71666666666664,-7.216666666666669,0
97014099999,SAM RATULANGI,124.92641923154292,1.5492556829611743,0
97096099999,KASIGUNCU,120.65766948300143,-1.4167531683765873,0
97120099999,MAJENE,119.0,-2.5,0
97180099999,HASANUDDIN,119.55399718366527,-5.061852745926373,0
97300099999,WAI OTI,122.2368889559445,-8.640646751156709,0
97378099999,ROTE/BAA/LEKUNIK,123.06666666666666,-10.733333333333334,0
97380099999,SABU/TARDAMU,121.83333333333331,-10.5,0
97430099999,BABULLAH,127.38148561657613,0.8314142023737645,0
97580099999,SARMI/ORAI,138.71666666666664,-1.8333333333333286,0
99817099999,BERMUDA ESSO PIER,-64.7,32.36666666666666,0
99820799999,SHELL WEST DELTA 143 OIL PLATFORM,-89.55,28.650000000000006,0
84072099999,INAQUITO,-78.48333333333333,-0.1666666666666714,0
93527099999,FAREWELL SPIT AWS,173.0,-40.55,0
98233099999,TUGUEGARAO,121.73061355864013,17.638311204988938,0
98428099999,SANGLEY POINT AB,120.90407463287067,14.495364111848716,0
98433099999,TANAY,121.36666666666667,14.583333333333329,0
98446099999,VIRAC,124.20567189700262,13.57643934821968,0
98642099999,DUMAGUETE,123.3004717360692,9.33371353852344,0
98746099999,COTOBATO,124.21666666666664,7.166666666666671,0
84474099999,JUANJUI,-76.72856065178033,-7.169099778716557,0
93597099999,CAPE CAMPBELL AWS,174.26666666666665,-41.71666666666667,0
99009399999,ENVIRONM BUOY 52001,165.0,2.0,0
99014299999,ATLAS BUOY 15006 / VALSE,-10.0,-6.0,0
99834599999,BUOY 42060 / E CARIBBEAN,-63.5,16.5,0
99845899999,BUOY 45028 / W LAKE SUPERIOR,-91.83333333333333,46.81666666666666,0
84658099999,PADRE ALDAMIZ,-69.22861094347213,-12.613610943472139,0
99848899999,SOUTH OF ST JOHN,-64.76666666666667,18.25,0
99848999999,SAN JUAN,-66.1,18.483333333333334,0
84673099999,CORONEL FAP ALFREDO MENDIVIL DUARTE,-74.20441661637497,-13.154818949909469,0
84782099999,CORONEL CARLOS CIRIANI SANTA ROSA INTL,-70.27583283041642,-18.053333333333327,0
85154099999,TTE AV JORGE HENRICH ARAUZ,-64.91801850734258,-14.818738684369336,0
93909099999,SOUTH WEST CAPE AWS,167.45,-47.266666666666666,0
94103099999,BROWSE ISLAND AWS,123.53333333333336,-14.11666666666666,0
94116099999,DUM IN MIRRIE,130.36666666666667,-12.63333333333334,0
94122099999,CAPE FOURCROY,130.01666666666665,-11.783333333333331,0
99203299999,BUOY 63057,1.5,59.19999999999999,0
99218099999,N MICHIGAN- HALFWAY BETWEEN NORTH MANITO,-86.42,45.33000000000001,0
99229099999,ST GEORGES - 8NM WEST NORTHWEST OF CRESC,-124.38,41.849999999999994,0
85469099999,MATAVERI INTL,-109.42183061758197,-27.164791792395896,0
85558099999,PUNTA ANGELES,-71.63333333333334,-33.03333333333333,0
85782099999,OSORNO,-73.05,-40.6,0
85921199999,EL LOA,-68.90357473345404,-22.498175417421038,0
94188099999,CAPE FLATTERY,145.31666666666666,-14.966666666666669,0
94203099999,BROOME INTL,122.23166666666668,-17.944722389861198,0
94231099999,LAJAMANU,130.63333333333333,-18.33333333333333,0
94266099999,NORMANTON AIRPORT,141.06666666666666,-17.683333333333337,0
99236099999,GEORGES BANK 170 NM EAST OF HYANNIS  MA,-66.62,41.110000000000014,0
99241099999,MONTEREY - 27NM WEST OF MONTEREY BAY  CA,-122.42,36.75,0
99249099999,BODEGA BAY - 48NM NORTH NORTHWEST OF SAN,-123.32,38.22999999999999,0
78333099999,PLAYA GIRON  MATANZAS,-81.03333333333333,22.066666666666663,0
86192099999,SAN ESTANISLAO,-56.43333333333334,-24.66666666666667,0
86460099999,PASO DE LOS TOROS,-56.516666666666666,-32.8,0
86490099999,MERCEDES/RICARDO DE,-58.06666666666666,-33.25,0
86580099999,CARRASCO INTL,-56.03080567290283,-34.83841681754174,0
94295099999,LUCINDA POINT AWS,146.38333333333333,-18.516666666666666,0
94303099999,THEVENARD ISLAND,115.01666666666665,-21.450000000000003,0
94308099999,ROEBOURNE AERO,117.14999999999998,-20.75,0
94346099999,LONGREACH AERO,144.28333333333336,-23.433333333333337,0
94368099999,HAMILTON ISLAND AIRPORT,148.95,-20.349999999999994,0
99404399999,SAN JUAN,-66.12,18.47,0
99408199999,EAST AMATULI STATION LIGHT  AK,-151.95,58.91999999999999,0
78346599999,ABEL SANTAMARIA,-79.94361094347214,22.492191711929195,0
78349099999,SANCTI SPIRITUS   SANCTI SPIRITUS,-79.45,21.933333333333337,0
78355099999,CAMAGUEY  CAMAGUEY,-77.85,21.400000000000006,0
78358099999,PUERTO PADRE   LAS TUNAS,-76.61666666666666,21.200000000000003,0
78363099999,CONTRAMAESTRE   SANTIAGO DE CUBA,-76.25,20.28333333333333,0
78439099999,TOUSSAINT LOUVERTURE INTL,-72.2925417421042,18.58005029169182,0
78631099999,COBAN,-90.40674210420438,15.468957956145644,0
94388099999,LADY ELLIOT ISLAND,152.71666666666664,-24.11666666666666,0
94417099999,MORAWA AIRPORT,116.01666666666665,-29.200000000000003,0
94429099999,MOUNT MAGNET AERO,117.83333333333331,-28.116666666666667,0
94474099999,PUKATJA,132.18333333333334,-26.266666666666666,0
99457099999,SAND KEY  FL,-81.88,24.459999999999994,0
99499099999,DATA BUOY 62145,2.8000000000000114,53.099999999999994,0
99516099999,SEAL ROCKS 55NM SOUTH OF VALDEZ  AK,-146.82999999999998,60.22,0
78639099999,RETALHULEU,-91.69725608529471,14.521016898008455,0
78704099999,TRUJILLO HONDURAS,-85.93,15.930000000000007,0
78742199999,PROVIDENCIALES,-72.26588613960973,21.773625025145847,0
78767099999,LIMON INTL,-83.02200563266948,9.957961174813917,0
78792099999,TOCUMEN INTL,-79.38345302755985,9.071363910681953,0
78793099999,ENRIQUE MALEK INTL,-82.43499195332932,8.391002816334748,0
78795599999,PANAMA PACIFICO,-79.6,8.916666666666671,0
78846099999,ANGUILLA,-63.05,18.200000000000003,0
94557099999,JIMNA FORESTRY,152.46666666666664,-26.666666666666664,0
94610099999,PERTH INTL,115.96694427680546,-31.940277610138807,0
94628099999,NEWDEGATE RES. STATION,118.83333333333331,-33.11666666666667,0
99544099999,DATA BUOY 63105,1.6999999999999886,61.0,0
99546099999,CANAVERAL EAST 120NM EAST OF CAPE CANAVE,-78.55,28.900000000000006,0
99547099999,PENSACOLA - 115NM EAST SOUTHEAST OF PENS,-86.06,28.799999999999997,0
99576099999,DATA BUOY 62166,0.5,57.19999999999999,0
99633099999,23 NAUTICAL MILES SOUTHWEST OF MONTAUK P,-72.0,40.69999999999999,0
78858099999,ROBERT L BRADSHAW,-62.718667270166975,17.31119392476363,0
78859099999,VANCE WINKWORTH AMORY INTL,-62.58986924160129,17.205677932005628,0
80211099999,EL EDEN,-75.76644739489036,4.452775095554216,0
87097099999,CATARATAS DEL IGUAZU,-54.47344397505532,-25.737281231140614,0
94658099999,COLES POINT,135.36666666666667,-34.38333333333333,0
94662099999,CLEVE AERODROME,136.5,-33.71666666666667,0
94678099999,MT CRAWFORD AWS,138.93333333333334,-34.733333333333334,0
94677099999,HINDMARSH ISLAND AWS,138.81666666666666,-35.516666666666666,0
94691099999,BROKEN HILL AIRPORT AWS,141.46666666666664,-32.0,0
94719099999,DUBBO,148.57472238986122,-32.21666666666667,0
99646099999,NORTH HECATE STRAIT,-131.1,53.620000000000005,0
99653099999,SOUTH HECATE STRAIT,-129.81,52.41999999999999,0
99697099999,GALVESTON  22NM EAST OF GALVESTON  TX.,-94.41,29.25,0
99701099999,BUOY 41008 / GRAYS REEF - 40 NM SOUTHEAST OF SAVANNAH,-80.87,31.400000000000006,0
99707199999,URSA-MISS CANYON,-89.11666666666666,28.200000000000003,0
80370099999,SAN LUIS,-77.67176423254878,0.8619251659625888,0
80398099999,ALFREDO VASQUEZ COBO,-69.94265841882921,-4.193175417421045,0
80415099999,SIMON BOLIVAR INTL,-66.99058338362502,10.603117079058535,0
81200099999,ZORG EN HOOP,-55.19074431703882,5.81108328304164,0
81202099999,NICKERIE,-57.03,5.950000000000003,0
87217099999,LA RIOJA,-66.79583886541943,-29.381636491651577,0
87393099999,MONTE CASEROS,-57.64023134178234,-30.271922148461073,0
87509099999,SAN RAFAEL,-68.4026775296721,-34.588088915711126,0
94749099999,BELLAMBI AWS,150.93333333333334,-34.38333333333333,0
94752099999,BADGERY'S CREEK AIRPORT,150.73333333333335,-33.9,0
94768099999,SYDNEY (OBSERVATORY HILL),151.2,-33.85,0
94786099999,PORT MACQUARIE AIRPORT AWS,152.85000000000002,-31.43333333333333,0
94804099999,NEPTUNE ISLAND,136.11666666666667,-35.333333333333336,0
94813099999,THE LIMESTONE,139.71666666666664,-36.96666666666667,0
94820099999,NARACOORTE AERODROME,140.73333333333335,-36.983333333333334,0
99719199999,LAKE WINNIPEG S. BASIN,-96.73,50.78999999999999,0
99725599999,9087044 - CALUMET  IL,-87.54,41.72999999999999,0
99725799999,9075099 - DE TOUR VILLAGE  MI,-83.9,45.99000000000001,0
58477099999,DINGHAI,122.11666666666667,30.03333333333333,0
58569099999,SHIPU,121.94999999999999,29.200000000000003,0
58633099999,QU XIAN,118.86666666666667,28.96666666666667,0
58921099999,YONG'AN,117.35000000000002,25.96666666666667,0
58968099999,TAIBEI,121.51666666666665,25.03333333333333,0
68396099999,MATSAPHA,31.30751860792597,-26.529022329511164,0
68408099999,PORT NOLLOTH,16.866666666666674,-29.233333333333334,0
68429099999,POSTMASBURG,23.066666666666663,-28.333333333333336,0
68471099999,VAN REENEN,29.383333333333326,-28.366666666666667,0
68494099999,MANDINI,31.400000000000006,-29.15,0
68527099999,PRIESKA,22.73333333333332,-29.666666666666664,0
68546099999,ALIWAL NORTH,26.71666666666667,-30.71666666666667,0
71860099999,SPRINGBANK A,-114.36666666666666,51.099999999999994,0
71861099999,BROADVIEW  SASK,-102.56666666666666,50.366666666666674,0
71862099999,ESTEVAN A,-102.96666666666667,49.21666666666667,0
71871099999,LLOYDMINSTER,-110.07249949708309,53.30916616374975,0
71883099999,BLUE RIVER,-119.28333333333333,52.116666666666674,0
71886499999,PRINCETON,-120.51138905652786,49.46805572319454,0
71900099999,HOPEDALE (AUT)  NFLD,-60.21666666666667,55.44999999999999,0
58974099999,PENGJIA YU,122.06666666666666,25.63333333333334,0
59023099999,HECHI,108.05000000000001,24.700000000000003,0
59134099999,GAOQI,118.12773888553613,24.544036411184877,0
59254099999,GUIPING,110.08333333333331,23.400000000000006,0
59265099999,WUZHOU,111.30000000000001,23.483333333333334,0
59559099999,HENGCHUN,120.75,22.0,0
59663099999,YANGJIANG,111.96666666666664,21.86666666666666,0
68618099999,CALVINIA,19.725897203781926,-31.500277610138802,0
68727099999,BEAUFORT WEST,22.55000000000001,-32.35,0
68815099999,LANGEBAAN,18.01666666666668,-33.083333333333336,0
68816099999,CAPE TOWN INTL,18.60166666666666,-33.964805874069604,0
68921099999,STRUISBAAI,20.066666666666663,-34.8,0
68933099999,TSITSIKAMMA,23.900000000000006,-34.03333333333333,0
68994099999,MARION ISLAND,37.866666666666674,-46.88333333333333,0
71905399999,UMIUJAQ,-76.51666666666667,56.53333333333333,0
71907099999,INUKJUAK A UA,-78.08333333333333,58.46666666666667,0
71912099999,GILLAM AIRPORT,-94.71666666666667,56.349999999999994,0
71933099999,FORT CHIPEWYAN A,-111.11666666666666,58.76666666666668,0
71946099999,FORT SIMPSON,-121.23666666666666,61.76027660430498,0
71947099999,MATAGAMI,-77.80277811305572,49.761666666666656,0
76653499999,PLAYA DE ORO INTL,-104.55863106014887,19.144777710722195,0
76658099999,COLIMA,-103.57739690203178,19.27701066183866,0
76773099999,HUAJUAPAN DE LEON   OAX.,-97.76666666666667,17.799999999999997,0
76855699999,PUERTO ESCONDIDO INTL,-97.08911687789177,15.876860792597057,0
60030099999,GRAN CANARIA,-15.386586199959766,27.931885938442974,0
60101099999,IBN BATOUTA,-5.916888955944472,35.7269171192919,0
60106099999,CHEFCHAOUEN,-5.300000000000011,35.16666666666667,0
60141099999,SAISS,-4.9779581573124005,33.92726111446389,0
60156099999,MOHAMMED V,-7.589966807483393,33.367467310400315,0
71957599999,AKLAVIK,-135.0058328304164,68.22333333333333,0
71978099999,IVVAVIK NAT. PARK  YT,-140.15,69.15,0
71980099999,RABBIT KETTLE  NWT,-127.2,61.94999999999999,0
71982099999,BLACK DIAMOND,-114.15,50.69999999999999,0
60445099999,SETIF AIN ARNAT,5.324494065580353,36.17812814323074,0
60507099999,GHRISS,0.14714242607121264,35.207724803862405,0
60520099999,SIDI-BEL-ABBES,-0.6166666666666742,35.2,0
60536099999,SAIDA,0.15000000000000568,34.86666666666666,0
60545099999,LAGHOUAT,2.927297324481998,33.76402534701268,0
60549099999,MECHERIA,-0.24235264534297585,33.53585294709315,0
60560099999,AIN-SEFRA,-0.5999999999999943,32.766666666666666,0
60603099999,RHOURD NOUSS,6.699999999999989,29.71666666666667,0
60611099999,IN AMENAS,9.642910883122113,28.051549989941662,0
60656099999,TINDOUF,-8.167103198551587,27.700372158519414,0
74638099999,MELROSE GUNNERY RANGE  NM.,-103.8,34.3,0
60731099999,ENFIDHA,10.433333333333337,36.08333333333333,0
60745099999,GAFSA,8.822502514584585,34.42202172601087,0
61080099999,MARADI,7.126753168376581,13.502530677932,0
61421099999,ATAR,-13.043193522430101,20.50682760008047,0
61461099999,BOUTILIMIT,-14.683333333333337,17.53333333333333,0
61630099999,MATAM/OURO SOGUI,-13.25,15.650000000000006,0
71005099999,ALBERT HALL AGCM,-111.16666666666667,53.099999999999994,0
71006099999,ALLIANCE AGCM,-111.76666666666667,52.30000000000001,0
71008099999,BASSANO AGCM,-112.45,50.883333333333326,0
71032099999,PRINCETON CS  BC,-120.5,49.46666666666667,0
61697099999,CAP SKIRING,-16.74612452222894,12.410200160933414,0
61731099999,BASSE,-14.216666666666669,13.316666666666663,0
61769099999,BOLAMA,-15.48333333333332,11.583333333333329,0
61802099999,KOUNDARA,-13.51666666666668,12.566666666666663,0
61832099999,CONAKRY,-13.611961375980684,9.576888955944483,0
61856099999,FREETOWN LUNGI,-13.195488835244419,8.61644437738886,0
71045599999,TESLIN,-132.74277811305572,60.172779118889565,0
71059099999,CROKER RIVER,-119.22,69.27000000000001,0
71063399999,FORT RESOLUTION,-113.68972238986119,61.18083182458258,0
71068099999,PEACE RIVER,-117.44722188694428,56.22694427680548,0
62435099999,KHARGA,30.53333333333333,25.450000000000003,0
62465099999,KOSSEIR,34.25,26.13333333333334,0
71076099999,URANIUM CITY (AUT),-108.48333333333333,59.56666666666666,0
71077499999,BUFFALO NARROWS,-108.41749949708309,55.841944276805464,0
71081099999,HALL BEACH,-81.24361094347213,68.77611144638905,0
71082399999,ALERT,-62.28055622611144,82.51777811305573,0
71094499999,REPULSE BAY,-86.2247223898612,66.52138905652785,0
71096099999,BROUGHTON ISLAND,-63.78,67.53,0
71101099999,SANDSPIT,-131.81383323274994,53.25433313216658,0
71123399999,EDMONTON VILLENEUVE,-113.85444377388855,53.66750050291691,0
71127099999,EDMONTON STONY PLAIN CS,-114.11666566083284,53.55000000000001,0
76001399999,GENERAL ABELARDO L RODRIGUEZ INTL,-116.9701579159123,32.54106417219876,0
76160099999,GENERAL IGNACIO P GARCIA INTL,-111.04785757392878,29.095857976262323,0
71147099999,CARMAN U OF M CS  MAN,-98.03333333333333,49.5,0
71155099999,EDMONTON INTERNATIONAL CS  ALTA,-113.6,53.30000000000001,0
71171099999,VINELAND STATION RCS  ONT,-79.4,43.18333333333334,0
71174099999,ARVIAT,-94.07083283041642,61.09416616374975,0
71179099999,TUKIALIK BAY,-58.349999999999994,54.72,0
71186099999,CAP- ROUGE  QUE,-70.53333333333333,48.366666666666674,0
71188099999,GASPE,-64.47861094347213,48.7752776101388,0
71196099999,PEMBROKE CLIMATE,-77.25,45.866666666666674,0
72071299999,HENRY TIFT MYERS AIRPORT,-83.48854355260511,31.428981090323873,0
76393099999,MONTERREY  N.L.,-100.3,25.733333333333334,0
76402099999,CIUDAD CONSTITUCION  BCS,-111.7,24.950000000000003,0
76405599999,GENERAL MANUEL MARQUEZ DE LEON INTL,-110.362475357071,24.07269362301348,0
76519099999,COLOTLAN  JAL.,-103.26666666666667,22.099999999999994,0
76543099999,TAMUIN  S.L.P.,-98.76666666666667,22.0,0
76548099999,TAMPICO  TAMPS,-97.85,22.200000000000003,0
76581099999,RIO VERDE  S.L.P.,-99.98333333333333,21.933333333333337,0
63333099999,COMBOLCHA/DESSIE,39.71666666666667,11.083333333333329,0
63403099999,GORE,35.55000000000001,8.166666666666671,0
63720099999,EMBU,37.44999999999999,-0.5,0
63789099999,ARUSHA,36.633333333333326,-3.3677942063971074,0
63793099999,VOI,38.56666666666666,-3.4000000000000057,0
63932099999,MBEYA,33.46666666666667,-8.933333333333337,0
71207099999,SQUAMISH   BC,-123.16666666666666,49.78333333333333,0
71208099999,BIG TROUT LAKE,-89.9,53.81666666666666,0
71208199999,POWELL RIVER,-124.5,49.834167169583594,0
71218099999,SALMON ARM CS  BC,-119.28333333333333,50.69999999999999,0
71221099999,CLEARDALE AGDM  ALTA,-119.73333333333333,56.30000000000001,0
71227099999,HOLDEN AGDM  ALTA,-112.23333333333333,53.18333333333334,0
71252099999,WILLOW CREEK 1  ALTA,-118.33333333333334,53.383333333333326,0
71258099999,OLDS AGDM  ALTA,-114.06666666666666,51.75,0
71263099999,HAMILTON,-79.935,43.17361094347214,0
71277099999,VALLEYVIEW AGDM  ALTA,-117.18333333333334,55.08333333333334,0
71286099999,ANDREW AGDM  ALTA,-112.26666666666667,53.91666666666666,0
51811099999,SHACHE,77.26666666666665,38.43333333333334,0
51886099999,MANGNAI,90.85000000000002,38.25,0
52495099999,BAYAN MOD,104.5,40.75,0
64155699999,MBUJI MAYI,23.569008247837445,-6.121236169784751,0
64390099999,BUJUMBURA INTL,29.318519412593048,-3.3240193120096535,0
64450099999,MAYA MAYA,15.253030577348625,-4.251699859183262,0
64453099999,DJAMBALA,14.76666666666668,-2.5333333333333314,0
71296099999,EGBERT CS  ONT,-79.78333333333333,44.23333333333332,0
71300099999,KEMPTVILLE CS  ONT,-75.63333333333334,45.0,0
71316099999,LACLABICHE CLIMATE  ALTA,-112.01666666666667,54.76666666666668,0
71325099999,BEDFORD RANGE,-63.66666666666667,44.75,0
71335099999,SAGLEK BAY,-62.58333333333333,58.33333333333334,0
71342099999,OYEN AGDM  ALTA,-110.35,51.383333333333326,0
71348099999,PEORIA AGDM  ALTA,-118.28333333333333,55.616666666666674,0
71351099999,OLIVER AGDM  ALTA,-113.35,53.650000000000006,0
71368099999,WATERLOO,-80.37861094347214,43.46083283041642,0
71371099999,MONTREAL/ST HUBERT,-73.41666666666667,45.51666666666668,0
53480099999,JINING,113.06666666666666,41.03333333333333,0
53723099999,YANCHI,107.38333333333333,37.8,0
53975099999,YANGCHENG,112.39999999999998,35.483333333333334,0
54012099999,XI UJIMQIN QI,117.60000000000002,44.58333333333334,0
54027099999,LINDONG,119.39999999999998,43.98333333333332,0
64700099999,NDJAMENA HASSAN DJAMOUS,15.034019312009661,12.133689398511365,0
64753099999,FAYA LARGEAU,19.11107825387245,17.91705290685978,0
64758099999,MONGO,18.683333333333337,12.183333333333337,0
64870099999,NGAOUNDERE,13.559241601287454,7.3570106618386575,0
65001099999,YELWA,4.75,10.88333333333334,0
71391099999,HIGH FALLS  QC,-75.63333333333334,45.83333333333334,0
71399099999,SEDALIA AGCM,-110.75,51.58333333333334,0
71403099999,BEAVER ISLAND (AUT)  NS,-62.33333333333333,44.81666666666666,0
71407099999,KUGAARUK CLIMATE,-89.8,68.53333333333333,0
71414099999,DUPRE AGCM,-110.86666666666666,54.366666666666674,0
71421099999,LAC EON  QUE,-63.28333333333333,51.866666666666674,0
71435099999,UPSALA (AUT)  ONT,-90.46666666666667,49.03333333333333,0
71438099999,WESTERN ISLAND (AUT)  ONT,-80.36666666666666,45.03333333333333,0
71442099999,FISHER BRANCH (AUT)  MAN,-97.55,51.08333333333334,0
71443099999,SWAN RIVER (AUT)  MAN,-101.23333333333333,52.116666666666674,0
71448099999,PINAWA  MAN,-96.05,50.16666666666666,0
71454099999,WASKESIU LAKE  SASK,-106.06666666666666,53.91666666666666,0
54218099999,CHIFENG,118.83333333333331,42.30000000000001,0
54308099999,FENGNING,116.63333333333333,41.19999999999999,0
54342499999,TAOXIAN,123.48342486421245,41.63984208408772,0
54497099999,DANDONG,124.33333333333331,40.05000000000001,0
54527099999,TIANJIN,117.16666666666669,39.099999999999994,0
54534099999,TANGSHAN,118.10000000000002,39.650000000000006,0
65112599999,NNAMDI AZIKIWE INTL,7.263175417421053,9.006781331724,0
65201699999,OWERRI LMO,7.199999999999989,5.416666666666671,0
65507099999,FADA N'GOURMA,0.36666666666667425,12.033333333333331,0
65516099999,BOROMO,-2.933333333333337,11.75,0
65536099999,KORHOGO,-5.556663649165159,9.387182659424667,0
65557099999,GAGNOA,-5.949999999999989,6.13333333333334,0
65560099999,DALOA,-6.473189499094758,6.792808288070816,0
65585099999,ADIAKE,-3.3000000000000114,5.299999999999997,0
71472499999,MASSET AIRPORT,-132.13,54.03,0
71478099999,SARTINE ISLAND (AUT),-128.9,50.81666666666666,0
71486099999,JASPER WARDEN  ALTA,-118.03333333333333,52.93333333333334,0
71503099999,DELINE CS  NWT,-123.43333333333334,65.21666666666667,0
71510099999,ROSETOWN EAST  SASK,-107.91666666666667,51.56666666666666,0
71523099999,CHAMOUCHOUANE  QUE,-73.35,49.26666666666668,0
71525099999,SEVEN PERSONS AGDM  ALTA,-110.91666666666667,49.91666666666666,0
71536099999,RAYMOND AGDM  ALTA,-112.68333333333334,49.48333333333332,0
71539099999,MOOSE JAW CS  SASK,-105.55,50.31666666666666,0
71541099999,JEAN COTE AGCM,-117.11666666666667,55.900000000000006,0
54857099999,LIUTING,120.37443572721787,36.26610842888755,0
54916099999,YANZHOU,116.85000000000002,35.56666666666666,0
55228099999,SHIQUANHE,80.08333333333331,32.5,0
55472099999,XAINZA,88.63333333333333,30.950000000000003,0
56046099999,DARLAG,99.64999999999998,33.75,0
56106099999,SOG XIAN,93.78333333333336,31.88333333333334,0
66136399999,SUMBE,13.847543753771873,-11.167921947294303,0
67005099999,DZAOUDZI PAMANDZI,45.28111345805672,-12.804722389861197,0
67295099999,CHIMOIO,33.42895795614564,-19.151267350633674,0
67297099999,BEIRA,34.9075558237779,-19.796419231542956,0
71553099999,ROBLIN  MAN,-101.36666666666666,51.18333333333334,0
71556099999,LAST MOUNTAIN CS,-105.25,51.41666666666666,0
71569099999,BRATT'S LAKE UA  SASK,-104.7,50.19999999999999,0
71579099999,WINNIPEG THE FORKS  MAN,-97.13333333333334,49.883333333333326,0
71585099999,FORT MCMURRAY CS  ALTA,-111.21666666666667,56.650000000000006,0
71600099999,SABLE ISLAND,-60.016666666666666,43.93333333333334,0
71608099999,VANCOUVER SEA ISLAND CCG,-123.18333333333334,49.18333333333334,0
71609099999,SAINT JOHN,-65.88333333333334,45.31666666666666,0
71617099999,JONQUIERE  QUE,-71.13333333333334,48.41666666666666,0
56492099999,YIBIN,104.60000000000002,28.799999999999997,0
56748099999,BAOSHAN,99.18333333333334,25.11666666666666,0
67867099999,GWERU THORNHILL,29.861911084288863,-19.436394085697046,0
71634099999,RED PINES,-65.58333333333333,47.43333333333334,0
71666099999,BUCTOUCHE CDA CS,-64.77,46.41999999999999,0
71668099999,FREDERICKTON CDA CS,-66.6,45.91999999999999,0
71670099999,KOUCHIBOUGUAC CS,-65.0,46.77000000000001,0
71671099999,KENTVILLE CDA,-64.48,45.06999999999999,0
71672099999,PETERBOROUGH TRENT U,-78.3,44.349999999999994,0
71674099999,FORESTBURG AGCM,-112.11666666666666,52.55000000000001,0
71675099999,BIG TROUT LAKE,-89.86666666666666,53.83333333333334,0
71680099999,LOWER CARP LAKE  NWT,-113.85,63.599999999999994,0
71683099999,TRAIL VALLEY  NWT,-133.5,68.75,0
71690099999,TEEPEE CREEK AGCM,-118.4,55.349999999999994,0
71691099999,BAIE COMEAU,-68.2,49.133333333333326,0
71695099999,THE PAS CLIMATE,-101.1,53.629999999999995,0
71709099999,ILES DE LA MADELEINE A,-61.78333333333333,47.41666666666666,0
71708099999,QUEBEC JEAN LESAGE INTL,-71.39333333333333,46.79111144638907,0
71714099999,QUEBEC/JEAN LESAGE INTL  QUE,-71.38333333333334,46.78333333333333,0
71724099999,TROIS RIVIERES  QUE,-72.5,46.349999999999994,0
71727099999,BAGOTVILLE,-70.99639106819554,48.3305552202776,0
57297099999,XINYANG,114.05000000000001,32.13333333333334,0
57306099999,LANGZHONG,105.96666666666664,31.58333333333333,0
57447099999,ENSHI,109.46666666666664,30.28333333333333,0
57399099999,MACHENG,114.94999999999999,31.13333333333334,0
57476099999,JIANGLING,112.18333333333334,30.33333333333333,0
57584099999,YUEYANG,113.08333333333331,29.38333333333334,0
67983099999,CHIPINGE,32.616666666666674,-20.200000000000003,0
67991099999,BEITBRIDGE,30.0,-22.21666666666667,0
68032099999,MAUN,23.431086300543143,-19.972563870448596,0
68151099999,LEPHEPE,25.849999999999994,-23.36666666666666,0
68183099999,THOHOYANDOU,30.383333333333326,-23.066666666666663,0
71728099999,ROBERVAL A,-72.26666666666667,48.51666666666668,0
71747099999,ATIKOKAN (AUT)  ONT,-91.61666666666666,48.75,0
71787099999,MECHANIC SETTLEMENT RCS,-65.16666666666667,45.69999999999999,0
71793099999,HEMARUKA AGCM,-111.21666666666667,51.78333333333333,0
57902099999,XINGREN,105.18333333333334,25.433333333333337,0
57993099999,GANZHOU,114.94999999999999,25.849999999999994,0
58208099999,GUSHI,115.61666666666667,32.16666666666667,0
58321199999,PUDONG,121.80521424260712,31.143377590022126,0
68263099999,PRETORIA/IRENE,28.21666666666667,-25.91666666666667,0
68300799999,VEREENIGING,27.960756387044853,-26.566371957352644,0
71807099999,ARGENTIA (AUT),-53.983333333333334,47.30000000000001,0
71811099999,SEPT ILES,-66.26666666666667,50.21666666666667,0
71823099999,LA GRANDE IV,-73.68333333333334,53.75,0
71829099999,BAIE COMEAU  QUE,-68.13333333333334,49.25,0
71834099999,GERALDTON GREENSTONE REGIONAL,-86.9394447797224,49.7783323274995,0
71842999999,CHESTERFIELD INLET,-90.71666666666667,63.33333333333334,0
71843199999,KANGIQSUJUAQ,-71.93333333333334,61.58333333333334,0
71845099999,PICKLE LAKE  A,-90.2,51.44999999999999,0
71854099999,RED LAKE,-93.79305572319453,51.06694427680546,0
72409614706,MCGUIRE AFB AIRPORT,-74.6,40.016669684168164,0
72748604983,WASKISH MUNICIPAL AIRPORT,-94.51666968416818,48.15388955944479,0
72353653986,ENID WOODRING REGIONAL AIRPORT,-97.8,36.38333031583183,0
74780903832,WINDER-BORROW AIRPORT,-83.66805974652988,33.98278012472339,0
70212026646,CAPE ROMANZOF LRRS ARPT,-166.03333031583182,61.78333031583182,0
70063226645,BUCKLAND AIRPORT,-161.1333303158318,65.98333031583184,0
70305025623,CAPE HEWENHAM LRRS AIRPORT,-162.06666968416818,58.650000000000006,0
70367025322,GUSTAVUS,-135.70889961778315,58.41110038221686,0
72035363875,MIDDLESBORO-BELL COUNTY AIRPORT,-83.73749949708308,36.61056024944679,0
72662794037,BUFFALO,-103.5463900623617,45.60443975055321,0
72651994993,SISSETON MUNICIPAL AIRPORT,-96.9913900623617,45.66888955944478,0
72743604863,ANTRIM COUNTY AIRPORT,-85.20305974652987,44.98639006236169,0
72656194997,WADENA MUNICIPAL AIRPORT,-95.21166968416817,46.44666968416817,0
72658994968,ALBERT LEA MUNICIPAL ARPT,-93.36666968416817,43.683330315831824,0
72520514762,ALLEGHENY COUNTY AIRPORT,-79.92166968416818,40.35472037819352,0
72439503958,ST LOUIS REGIONAL AIRPORT,-90.05,38.88333031583181,0
72518014735,ALBANY INTERNATIONAL AIRPORT,-73.80920036210019,42.74309997988331,0
70218526622,MEKORYUK AIRPORT,-166.2,60.38333031583181,0
72462023061,SAN LUIS VALLEY REGIONAL AIRPORT,-105.86129953731644,37.438899617783136,0
72784624160,WALLA WALLA REGIONAL ARPT,-118.28694025347014,46.09472037819353,0
70207526644,ANVIK AIRPORT,-160.18333031583182,62.650000000000006,0
70200026617,NOME AIRPORT,-165.44,64.51110038221685,0
70255026514,SKWENTNA AIRPORT,-151.21690002011667,61.97719975859988,0
70360625629,TOGIAK AIRPORT,-160.3666696841682,59.066669684168176,0
70275626479,VALDEZ PIONEER FIELD AIRPORT,-146.24350030175015,61.131499698249854,0
72319093846,ANDERSON REGIONAL AIRPORT,-82.7097002615168,34.4976996580165,0
72734014847,SAULT STE MARIE MUNI/SASN FIELD AP,-84.35719975859988,46.47939951719977,0
72429804850,LIMA ALLEN COUNTY AIRPORT,-84.0272198752766,40.70750050291693,0
72641994929,JOHN F KENNEDY MEMO ARPT,-90.91888955944478,46.548609937638304,0
72411893797,MCKNBRG-BRUNWICK RGNL ARPT,-78.05443975055321,36.68805974652987,0
72645704825,OUTAGAMIE CO RGNL AIRPORT,-88.51666968416818,44.266669684168164,0
72756604902,AUSTIN MUNICIPAL AIRPORT,-92.93333031583182,43.66472037819352,0
72555594946,BROKEN BOW MUNICIPAL ARPT,-99.63333031583183,41.433330315831824,0
72411353881,VIRGINIA TECH AIRPORT,-80.4077801247234,37.207500502916915,0
72202212803,BOCA RATON AIRPORT,-80.10749949708308,26.378330315831818,0
91190522524,LANAI AIRPORT,-156.94850030175016,20.789500100583382,0
91190022516,KAHULUI AIRPORT,-156.4286099376383,20.89972037819352,0
42363099999,MISSISSIPPI CANYON OIL PLATFORM,-89.22,28.159999999999997,0
72469523036,BUCKLEY AIR FORCE BASE,-104.75,39.71666968416818,0
72524504853,CLEVELAND BURKE LAKEFNT AP,-81.68360993763831,41.51750050291693,0
72551594947,BEATRICE MUNICIPAL AIRPORT,-96.75388955944479,40.30139006236169,0
72212312809,BARTOW MUNICIPAL AIRPORT,-81.78333031583182,27.950000000000003,0
72027103044,BIG SRNG MCMHN-WRKLE ARPT,-101.5213900623617,32.212500502916924,0
72213653883,BRUNSWICK GOLDEN ISLES APT,-81.46611044055523,31.258889559444782,0
72677024033,BILLINGS LOGAN INTERNATIONAL AIRPORT,-108.54219975859988,45.80690002011667,0
72542014931,SE IOWA REGIONAL AIRPORT,-91.12527962180648,40.78333031583182,0
72617014742,BURLINGTON INTERNATIONAL AIRPORT,-73.14990042245022,44.46830014081672,0
72545804907,CLARION MUNICIPAL AIRPORT,-93.75888955944478,42.74166968416819,0
72406093721,BALTIMORE-WASHINGTON INTL AIRPORT,-76.68330014081674,39.166600281633464,0
72638414817,WEXFORD COUNTY AIRPORT,-85.41666968416817,44.28333031583182,0
72524704805,CUYAHOGA COUNTY AIRPORT,-81.48333031583182,41.566669684168176,0
72495023254,BUCHANAN FIELD AIRPORT,-122.055,37.99169985918326,0
74491014703,WESTOVER AFB/METROPOLITAN AIRPORT,-72.53333031583182,42.19999999999999,0
72451993967,COFFEYVILLE MUNICIPAL ARPT,-95.56639006236169,37.09111044055523,0
72670024045,YELLOWSTONE REGIONAL ARPT,-109.01666968416818,44.516669684168164,0
72400603701,CHESAPEAKE REGIONAL ARPT,-76.32056024944679,36.6655602494468,0
72569024089,NATRONA COUNTY INTERNATIONAL AP,-106.47389961778315,42.897699658016506,0
72099299999,NOVEMBER (GROVER),-103.83333333333333,40.633333333333326,0
72099399999,OSCAR (GROVER),-104.0,40.883333333333326,0
72100199999,GOLF (SIMMS),-112.1,47.33333333333334,0
72100299999,HOTEL (FAIRFIELD),-111.95,47.69999999999999,0
72643794940,SPARTA/FORT MC COY AIRPORT,-90.73333031583182,43.96666968416818,0
72267703027,CLINES CORNERS,-105.6627801247234,35.0027801247234,0
72506994624,CHATHAM MUNICIPAL AIRPORT,-69.99333031583183,41.68750050291692,0
72101499999,DELTA (MAX),-101.29875779521223,47.79512070006035,0
72101699999,FOXTROT (RYDER 2),-101.67428183464092,47.8961818547576,0
72101899999,HOTEL (PARSHALL),-102.22262422047878,47.97439147052907,0
72207463840,CARMI MINICIPAL AIRPORT,-88.12305974652988,38.0894397505532,0
72564024018,CHEYENNE AIRPORT,-104.81669985918326,41.150000000000006,0
72653994056,FAITH MUNICIPAL AIRPORT,-102.0191701870851,45.03194025347014,0
72410613728,DANVILLE REGIONAL AIRPORT,-79.33610038221686,36.57280024140012,0
72036904135,DRIGGS-REED MEMORIAL AIRPORT,-111.09750050291692,43.742500502916926,0
72221763881,W H `BUD` BARRON AIRPORT,-82.98527962180648,32.564439750553205,0
72451013985,DODGE CITY REGIONAL AIRPORT,-99.96780024140013,37.76859987929994,0
72531603887,DECATUR AIRPORT,-88.86556024944679,39.8344397505532,0
72272523078,DEMING MUNICIPAL AIRPORT,-107.72056024944679,32.2622198752766,0
72258903991,DENTON MUNICIPAL AIRPORT,-97.19888955944478,33.20611044055522,0
74251353937,EAKER FIELD AIRPORT,-96.3944397505532,33.942219875276606,0
72389853119,HANFORD MUNICIPAL AIRPORT,-119.62888955944479,36.318889559444784,0
72257003933,HOOD AAF AIRPORT,-97.71666968416818,31.133330315831827,0
72313993729,BILLY MITCHELL AIRPORT,-75.62190002011668,35.23260008046671,0
72462593005,DURA-LA PLATA CO AIRPORT,-107.76027962180648,37.14305974652987,0
72552594949,HASTINGS MUNICIPAL AIRPORT,-98.42579963789981,40.600499899416604,0
72020299999,TILLAMOOK AWS,-123.81666666666666,45.41666666666666,0
72039599999,PLEASANTON MUNI,-98.5199859183263,28.954189297927982,0
72467523063,EAGLE CO REGIONAL AIRPORT,-106.91666968416817,39.650000000000006,0
72341993992,S. AR RGNL AT GDWIN FLD AP,-92.8141701870851,33.2208298129149,0
72353513909,VANCE AIR FORCE BASE,-97.91666968416817,36.33333031583183,0
72508654734,DANBURY MUNICIPAL AIRPORT,-73.48278012472339,41.371390062361684,0
72486023154,ELY AIRPORT/YELLAND FIELD/AIRPORT,-114.84660028163347,39.295200160933405,0
72236192808,NEW SMYRNA BEACH MUNICIPAL AIRPORT,-80.94833031583183,29.05417018708509,0
72432093817,EVANSVILLE REGIONAL AIRPORT,-87.52049989941662,38.04409977871654,0
72504514758,TWEED-NEW HAVEN AIRPORT,-72.8872198752766,41.26388955944478,0
72027903705,CURTIS L BROWN JR FLD ARPT,-78.57805974652987,34.60166968416817,0
72308793735,FELKER ARMY AIRFIELD,-76.6,37.13333031583183,0
72240612927,HOUMA-TERREBONNE AIRPORT,-90.66027962180648,29.56639006236169,0
72029304989,INDEPENDENCE MUNICIPAL APT,-91.94749949708309,42.453330315831835,0
72450953939,NEWTON-CITY-COUNTY AIRPORT,-97.27472037819352,38.067780124723384,0
72243012960,G BUSH INTERCONTINENTAL AP/HOUSTON AP,-95.36,29.980000000000004,0
72743794893,FORD AIRPORT,-88.1144397505532,45.818330315831815,0
72212853899,LICONTN-LINCOLN CO RGNL AP,-81.16111044055522,35.483059746529875,0
72713594623,WISCASSET AIRPORT,-69.71166968416817,43.963609937638296,0
74740013973,KIMBLE COUNTY AIRPORT,-99.7663900623617,30.510829812914906,0
72062699999,PAMPA M VISTA,-101.03333333333333,35.88333333333334,0
72064699999,HALF MOON BAY AIRPORT,-122.50116676725006,37.513443975055324,0
72067199999,JESUP WAYNE CO,-81.8825165962583,31.553963991148663,0
72028203736,FIRST FLIGHT AIRPORT,-75.6713900623617,36.01833031583182,0
72746704926,FLAG ISLAND,-94.90278012472339,49.318330315831815,0
72344703918,MARION COUNTY RGNL AIRPORT,-92.59,36.29082981291491,0
72553394957,BRENNER FIELD AIRPORT,-95.59194025347013,40.08027962180648,0
72314453890,RURFTON CO-MARCHMAN FLD AP,-81.935,35.42805974652987,0
74739013961,FT WORTH MEACHAM INTL ARPT,-97.36139006236169,32.81917018708509,0
72514654773,OSWEGO COUNTY AIRPORT,-76.38472037819352,43.349720378193524,0
72438814829,GOSHEN MUNICIPAL AIRPORT,-85.78330014081673,41.53330014081675,0
72262023055,GUADALUPE PASS AMOS,-104.80888955944478,31.83111044055522,0
72259303985,FORT WORTH SPINKS AIRPORT,-97.30805974652988,32.565,0
72349513987,JOPLIN REGIONAL AIRPORT,-94.50219975859989,37.14660028163347,0
72753514919,JAMESTOWN REGIONAL AIRPORT,-98.66909977871656,46.925799637899814,0
72641594854,ROCK COUNTY AIRPORT,-89.03333031583182,42.61666968416819,0
72540904882,HILLSDALE MUNICIPAL ARPT,-84.58556024944679,41.921110440555225,0
72211912883,LAKELAND LINDER REGIONAL AIRPORT,-82.05,28.0,0
72211899999,VENICE MUNI,-82.4403329309998,27.071611345805678,0
72365493091,LOS ALAMOS AIRPORT,-106.28333031583182,35.88333031583183,0
72252712976,BRAZORIA COUNTY AIRPORT,-95.46194025347013,29.10972037819353,0
72618494709,AUBURN/LEWISTON MUNI ARPT,-70.28333031583182,44.05000000000001,0
72479694128,LOGAN-CACHE AIRPORT,-111.85333031583183,41.787219875276605,0
72340313963,ADAMS FIELD AIRPORT,-92.23889961778315,34.72730034198351,0
72597694285,LAKE COUNTY AIRPORT,-120.4,42.16666968416817,0
72589594236,KLAMATH FALLS AIRPORT,-121.7241701870851,42.14694025347012,0
72551014939,LINCOLN MUNICIPAL AIRPORT,-96.74749949708308,40.850799637899826,0
72247953907,ARLINGTON MUNICIPAL AIRPORT,-97.09388955944478,32.6636099376383,0
72242012923,SCHOLES INTL AT GLSTON APT,-94.85920036210018,29.273300140816744,0
72552014935,CENTRAL NEBRASKA REGIONAL AIRPORT,-98.31359987929994,40.96110038221687,0
72362723081,GALLUP MUNICIPAL AIRPORT,-108.79400020116677,35.51439951719976,0
72209503030,GUYMON MUNICIPAL AIRPORT,-101.50527962180648,36.68166968416817,0
74758013978,GREENWOOD-LEFLORE AIRPORT,-90.08660028163348,33.49629953731643,0
72751704932,GLENCOE MUNICIPAL AIRPORT,-94.08111044055522,44.7558298129149,0
72235703961,HRDY-ANRES FD NTCHZ-ADAMS COUNTY AIRPORT,-91.28333031583182,31.616669684168173,0
72032704995,MENOMONIE MUNICIPAL AIRPORT-SCORE FIELD,-91.8677801247234,44.892219875276595,0
72412753801,GREENBRIER VALLEY ARIPORT,-80.4,37.86666968416817,0
72783024149,LEWISTON-NEZ PERCE COUNTY AIRPORT,-117.01560048280024,46.37470026151681,0
72200654926,QUENTIN AANENSON FIELD AIRPORT,-96.2158298129149,43.62111044055521,0
72638594894,MANISTEE CO-BLACKER ARPT,-86.25,44.266669684168164,0
72235893919,MCOM/PIKE CO/J E LWS FD AP,-90.47079963789982,31.18269965801649,0
72446003947,KANSAS CITY INTERNATIONAL AIRPORT,-94.73060048280024,39.297199758599874,0
72232403071,MIDLAND AIRPARK,-102.10111044055522,32.036390062361704,0
72433693810,SOUTHERN ILLINOIS AIRPORT,-89.24972037819352,37.77972037819352,0
72641754911,TAYLOR COUNTY AIRPORT,-90.30333031583183,45.100829812914895,0
72310993782,LAURINBURG-MAXTON AIRPORT,-79.36611044055522,34.79166968416817,0
72420014891,MANSFIELD LAHM REGIONAL AIRPORT,-82.5177801247234,40.82027962180646,0
72402603716,ACCOMACK COUNTY AIRPORT,-75.7608298129149,37.646669684168174,0
72214404945,MAPLE LAKE MUNICIPAL ARPT,-93.98556024944679,45.235829812914915,0
72214504884,HARBOR SPRINGS AIRPORT,-84.91333031583183,45.42556024944679,0
72214753817,MOULTRIE MUNICIPAL AIRPORT,-83.8,31.08333031583183,0
72234503866,MERIDIAN NAS/MC CAIN FD AP,-88.56666968416818,32.55,0
72417713734,ETRN WV RGNL/SHPHERD FD AP,-77.98439951719976,39.40190002011667,0
72264093035,MARFA MUNICIPAL AIRPORT,-104.01666968416818,30.371390062361698,0
72303793765,MICHAEL J SMITH FLD ARPT,-76.66056024944679,34.733609937638306,0
72611454771,MORRISVILLE-STOWE ST ARPT,-72.6144397505532,44.53443975055322,0
72317763807,MOUNT AIRY/SURRY CO ARPT,-80.5527801247234,36.45972037819352,0
72220303041,MONARCH PASS AWOS-3 ARPT,-106.31666968416818,38.483330315831836,0
72208593831,BEAUFORT MCAS,-80.71666968416818,32.48333031583182,0
72292603154,MARINE CORPS AIR STATION,-117.35,33.3,0
72251512926,CORPUS CHRISTI NAS,-97.28333031583182,27.683330315831824,0
72293193107,MARINE CORPS AIR STATION,-117.13333031583183,32.86666968416817,0
72541404886,BRANCH COUNTY MEMO AIRPORT,-85.05250050291691,41.933330315831824,0
72768694017,L M CLAYTON AIRPORT,-105.57443975055321,48.09443975055322,0
72216563808,OLIVE BRANCH AIRPORT,-89.78666968416817,34.978609937638296,0
74465953822,OLNEY-NOBLE AIRPORT,-88.1763900623617,38.72166968416818,0
72550014942,EPPLEY AIRFIELD AIRPORT,-95.89909977871656,41.31020016093342,0
72216703718,ORANGE COUNTY AIRPORT,-78.0455602494468,38.246940253470115,0
72234192822,ORMOND BEACH MUNICIPAL AIRPORT,-81.11249949708308,29.295829812914903,0
72654404958,ORR REGIONAL AIRPORT,-92.8558298129149,48.015829812914916,0
72548904959,ORANGE CITY MUNICIPAL ARPT,-96.06278012472339,42.99000000000001,0
72530094846,CHICAGO O'HARE INTERNATIONAL AIRPORT,-87.93359987929993,41.995000000000005,0
72031153962,MOUNT PLEASANT RGNL ARPT,-94.9613900623617,33.09556024944679,0
74504893210,OROVILLE MUNICIPAL AIRPORT,-121.61833031583183,39.49000000000001,0
72538794899,COPPER HARBOR,-87.88333031583183,47.46666968416818,0
72666494173,YELLOWSTONE,-110.42111044055522,44.54443975055321,0
72493723289,PALO ALTO AIRPORT OF SANTA CLARA COUNTY,-122.11666968416817,37.46666968416818,0
72216903058,PECOS MUNICIPAL AIRPORT,-103.5108298129149,31.382500502916912,0
72371003162,PAGE MUNICIPAL AIRPORT,-111.4477801247234,36.92611044055522,0
72734714841,PELLSTON REGIONAL ARPT OF EMMET COUNTY ARPT,-84.7926996580165,45.564399517199746,0
72382023182,PDLE PRODN FLT/TST AF PLT,-118.0836099376383,34.6294397505532,0
72303013714,POPE AFB AIRPORT,-79.00888955944478,35.173889559444774,0
72713014604,NERN MAINE RGNL ARPT AT PRESQUE IS AIRPORT,-68.05,46.683330315831824,0
74768853858,TRENT LOTT INTL AIRPORT,-88.53194025347013,30.463609937638296,0
72036263874,MAC CRENSHAW MEMORIAL AIRPORT,-86.6108298129149,31.84556024944679,0
72411613868,NEW RIVER VALLEY AIRPORT,-80.68333031583182,37.13333031583183,0
72662024090,RAPID CITY REGIONAL AIRPORT,-103.05359987929994,44.04330014081674,0
72375854928,RUSK COUNTY AIRPORT,-91.00056024944679,45.496940253470115,0
72519664775,GRIFFIS AIRFIELD,-75.41166968416817,43.233889559444776,0
72073299999,MUSTANG ISLAND A85A,-96.18333333333334,27.733333333333334,0
72074299999,FAITH RANCH AIRPORT,-100.01880506940253,28.208555622611144,0
72074799999,ELK MOUNTAIN,-106.46666666666667,41.73333333333332,0
72268023009,ROSWELL INTERNATIONAL AIR CENTER AP,-104.50830014081674,33.30750050291692,0
72669024057,RAWLINS MUNI/HARVEY FIELD ARPT,-107.2,41.80000000000001,0
72483023232,SACRAMENTO EXECUTIVE AIRPORT,-121.495,38.50690002011669,0
72365623049,SANTA FE MUNICIPAL AIRPORT,-106.08888955944478,35.61694025347013,0
72467894033,STEAMBOAT SPRINGS/BOB ADAMS FIELD AIRPORT,-106.86666968416817,40.516669684168164,0
72398093720,SALBRY-OCN CTY WICO RGNL AP,-75.51027962180648,38.34056024944678,0
72383023187,SANDBERG,-118.72420036210019,34.743599879299936,0
72278903192,SCOTTSDALE AIRPORT,-111.91056024944679,33.62278012472339,0
72768794028,SIDNEY-RICHLAND MUNI ARPT,-104.18333031583182,47.71666968416818,0
72793024233,SEATTLE-TACOMA INTERNATIONAL AIRPORT,-122.31380004023336,47.44439951719977,0
72785694176,FELTS FIELD AIRPORT,-117.3213900623617,47.683059746529864,0
72435463815,SOMERSET-PULASKI CO-J.T. WILSON FIELD AIRPORT,-84.61472037819352,37.05417018708509,0
74733503059,SONORA MUNICIPAL AIRPORT,-100.6486099376383,30.58582981291491,0
72464603028,COMANCHE NATIONAL GRASSLAND,-102.61388955944479,37.28333031583182,0
72434013994,LAMBERT-ST LOUIS INTERNATIONAL AP,-90.37359987929995,38.75250050291692,0
72354503965,STILLWATER REGIONAL ARPT,-97.08939951719975,36.1623999195333,0
72032204129,SANDPOINT AIRPORT,-116.56,48.299439750553205,0
74206024207,MCCHORD AFB AIRPORT,-122.48333031583182,47.150000000000006,0
72502594741,TETERBORO AIRPORT,-74.0613900623617,40.849999999999994,0
72053999999,STEVENS FIELD,-107.05,37.28333333333333,0
72058699999,PLATTEVILLE MUNI,-90.4443924763629,42.68935626634479,0
72060199999,AIKEN MUNI,-81.685,33.64944377388855,0
72546404977,NEWTON MUNICIPAL AIRPORT,-93.02166968416817,41.67417018708508,0
72219953956,TAHLEQUAH MUNICIPAL ARPT,-95.0044397505532,35.928889559444784,0
72335013877,TRI-CITIES REGIONAL TN/VA AIRPORT,-82.40439951719976,36.47309997988333,0
72755594956,THIEF RIVER FALLS RGNL APT,-96.18333031583182,48.066669684168176,0
72586694178,JSIN FLD-MAGIC VLY RGN APT,-114.48694025347012,42.48194025347013,0
72512854739,UNIVERSITY PARK AIRPORT,-77.85,40.849999999999994,0
72507914787,NEWPORT STATE AIRPORT,-71.28333031583182,41.53333031583182,0
72442013997,ROLLA NATIONAL AIRPORT,-91.76833031583182,38.13111044055523,0
72389693144,VISALIA MUNICIPAL AIRPORT,-119.4,36.316669684168176,0
72206763823,CECIL FIELD AIRPORT,-81.8763900623617,30.218609937638305,0
72089599999,GLEN ULLIN REGIONAL,-101.86015590424462,46.812782136391064,0
72090499999,DELAND MUNI SIDNEY H TAYLOR FLD,-81.28394186280427,29.06698149265742,0
68002599999,KATIMA MULILO,24.166666666666657,-17.63333333333334,0
68013099999,ONDANGWA,15.949999999999989,-17.883000402333536,0
27756099999,KRASNOSLOBODSK,43.76666666666668,54.43333333333334,0
27823099999,PAVELETS,39.25,53.78333333333333,0
27835099999,RJAZSK,40.116666666666674,53.71666666666667,0
27848099999,MORSANSK,41.80000000000001,53.44999999999999,0
27947099999,TAMBOV,41.33333333333334,52.80000000000001,0
27962199999,VOSTOCHNY,48.80265640716155,54.401016898008436,0
04208099999,KITSISSORSUIT (EDDERFUGLE OEER),-57.81666666666666,74.03333333333333,0
33301299999,MYKOLAIV,31.91699959766646,47.05000000000001,0
11260099999,MALLNITZ-BAD,13.166666666666657,47.0,0
11343099999,SONNBLICK - AUTOM.,12.949999999999989,47.05000000000001,0
33647099999,RAKHIV,24.19999999999999,48.05000000000001,0
28049099999,GARI,62.33333333333334,59.43333333333334,0
28138099999,BISER,58.849999999999994,58.51666666666668,0
28321099999,OHANSK,55.383333333333326,57.71666666666667,0
28382099999,UST'-ISIM,71.18333333333334,57.68333333333334,0
28411099999,IZHEVSK,53.44999999999999,56.83333333333334,0
28434099999,KRASNOUFIMSK,57.78333333333333,56.650000000000006,0
47141043219,KUNSAN AB,126.61699959766645,35.91699959766646,0
28481099999,VIKULOVO,70.61666666666667,56.81666666666666,0
28502099999,VJATSKIE POLJANY,51.03333333333333,56.23333333333332,0
28506099999,ELABUGA,52.06666666666666,55.76666666666668,0
28517099999,MENZELINSK,53.06666666666666,55.71666666666667,0
28552099999,SADRINSK,63.650000000000006,56.06666666666666,0
28748099999,TROIZK,61.616666666666674,54.08333333333334,0
72265423091,FT STOCKTONPECOS,-102.91699959766646,30.911999597666465,0
03583035034,LAKENHEATH RAF,0.5669995976664666,52.41699959766646,0
28799099999,CERLAK,74.80000000000001,54.16666666666666,0
28900099999,KURUMOCH,50.16433614966809,53.5048581774291,0
29023099999,NAPAS,81.94999999999999,59.849999999999994,0
29282099999,BOGUCANY,97.44999999999999,58.383333333333326,0
29374099999,KAZACHINSKOE,93.26666666666665,57.68333333333334,0
29430099999,TOMSK,84.91666666666669,56.5,0
29562099999,KEMCHUG,91.66666666666669,56.099999999999994,0
72416503725,GRANT CO,-79.14400020116676,38.994000201166756,0
72598524267,BROOKINGS,-124.28999999999999,42.07400020116677,0
29772099999,ARTEMOVSK,93.43333333333334,54.366666666666674,0
29937099999,ALEJSKAJA,82.76666666666665,52.51666666666668,0
30173099999,TYANYA,119.80000000000001,59.0,0
30252099999,MAMAKAN,114.01666666666665,57.81666666666666,0
72028153969,WILBARGER CO,-99.28400020116676,34.22599979883323,0
20292099999,GMO IM.E.K. FEDOROVA,104.30000000000001,77.71666666666667,0
20946099999,IM E K FEDOROVA,59.08333333333334,70.44999999999999,0
30627099999,BAJANDAJ,105.53333333333336,53.099999999999994,0
30741099999,ZAMAKTA,109.96666666666664,52.76666666666668,0
72308499999,HANOVER CO MUNI,-77.43699959766647,37.70900020116677,0
07179034051,TOUL / ROSIERES,5.983000402333545,48.78300040233353,0
21978099999,VAL' KARKAY,170.93333333333334,70.08333333333334,0
22127099999,LOVOZERO,35.03333333333333,68.0,0
22312099999,KOVDA,32.883333333333326,66.69999999999999,0
22334099999,KASHKARANTSY,36.01666666666668,66.33333333333334,0
22349099999,PJALICA,39.53333333333333,66.18333333333334,0
30815099999,HAMAR-DABAN,103.60000000000002,51.53333333333333,0
30838099999,PETROVSKIJ ZAVOD,108.86666666666667,51.31666666666666,0
30859099999,AGINSKOE,114.51666666666665,51.099999999999994,0
30949099999,KYRA,111.96666666666664,49.56666666666666,0
30957099999,AKSA,113.26666666666665,50.26666666666668,0
31026099999,UCHUR,130.61666666666667,58.73333333333332,0
31062099999,YUGORENOK,137.66666666666669,59.76666666666668,0
31123099999,CJUL'BJU,130.89999999999998,57.76666666666668,0
31328999999,IGNATYEVO,127.41247837457252,50.42539428686382,0
22621099999,SEGEZA,34.28333333333333,63.76666666666668,0
22671099999,KARPOGORY,44.44999999999999,64.01666666666668,0
22686099999,VENDINGA,47.91666666666666,63.44999999999999,0
22721099999,MEDVEZEGORSK,34.43333333333334,62.91666666666666,0
22820099999,PETROZAVODSK,34.26666666666668,61.81666666666666,0
22892099999,VYBORG,28.73333333333332,60.71666666666667,0
22913099999,LODEJNOE POLE,33.55000000000001,60.71666666666667,0
22951099999,KONOSHA,40.25,60.98333333333332,0
22954099999,VOZEGA,40.19999999999999,60.46666666666667,0
31484099999,HULARIN,135.08333333333331,51.41666666666666,0
31527099999,ZAVITAJA,129.46666666666664,50.116666666666674,0
44216099999,HUNHATAOORTOO,93.10000000000002,48.81666666666666,0
23205099999,NAR'JAN-MAR,53.03333333333333,67.63333333333333,0
23324099999,PETRUN',60.76666666666668,66.43333333333334,0
57461099999,YICHANG,111.36666666666667,30.733333333333334,0
23376099999,SVETLOGORSK,88.36666666666667,66.93333333333334,0
23463099999,YANOV-STAN,84.26666666666665,65.98333333333332,0
23465099999,KRASNOSEL' KUPSK,82.44999999999999,65.69999999999999,0
23503099999,IZHMA,53.96666666666667,65.03333333333333,0
23552099999,TARKO-SALE,77.81666666666666,64.91666666666666,0
31909099999,TERNEJ,136.60000000000002,45.0,0
31981199999,ALYKEL,87.33218265942469,69.31105310802656,0
32053099999,NOGLIKI,143.13333333333333,51.91666666666666,0
32061099999,ALEKSANDROVSK-SAHALINSKIJ,142.16666666666669,50.900000000000006,0
32099099999,MYS TERPENIYA,144.73333333333335,48.650000000000006,0
32333099999,OZERNOY (MYS),163.23333333333335,57.650000000000006,0
23662099999,TOL'KA,82.08333333333331,63.98333333333332,0
23708099999,LUN',52.48333333333332,62.23333333333332,0
23734099999,OKTJABR'SKOE,66.05000000000001,62.44999999999999,0
23748099999,KOGALYM,74.53380305773487,62.19041742104204,0
23776099999,BAHTA,89.01666666666665,62.46666666666667,0
23823099999,VONEGAN,64.9,61.94999999999999,0
06752099999,CEVIO,8.599999999999994,46.31666666666666,0
32477099999,SOBOLEVO,155.93333333333334,54.30000000000001,0
32594099999,OZERNAJA,156.48333333333335,51.48333333333332,0
34098099999,PUGACEV,48.83333333333334,52.03333333333333,0
34199099999,OZINKI,49.73333333333332,51.19999999999999,0
34273099999,KRASNYJ KUT,46.96666666666667,50.94999999999999,0
34321099999,VALUJKI,38.099999999999994,50.21666666666667,0
23986099999,SEVERO-ENISEJSK,93.03333333333336,60.366666666666674,0
24125099999,OLENEK,112.43333333333334,68.5,0
24266099999,VERHOJANSK,133.39999999999998,67.56666666666666,0
24382099999,UST'-MOMA,143.23333333333335,66.44999999999999,0
24449099999,BESTYAHSKAYA ZVEROFERMA,124.11666666666667,65.30000000000001,0
24507099999,TURA,100.23333333333335,64.26666666666668,0
24641099999,VILJUJSK,121.61666666666667,63.76666666666668,0
24725099999,TUOJ-HAYA,111.23333333333335,62.53333333333333,0
34868099999,IKI-BURUL,44.633333333333326,45.80000000000001,0
84006099999,RIO AMAZONAS,-78.06699959766647,-1.5,0
24826099999,DOROZHNYJ,114.61666666666667,61.616666666666674,0
24856099999,POKROVSK,129.14999999999998,61.48333333333332,0
24871099999,OHOTSKIJPEREVOZ,135.5,61.866666666666674,0
24898099999,UST' OMCHUG,149.63333333333333,61.116666666666674,0
24923099999,LENSK,114.88333333333333,60.71666666666667,0
24988099999,ARKA,142.33333333333331,60.08333333333334,0
25121099999,KOLYMSKAYA,158.71666666666664,68.73333333333332,0
25138099999,OSTROVNOE,164.16666666666669,68.11666666666667,0
25147099999,BILIBINO,166.45,68.05000000000001,0
25356099999,EN' MUVEEM,173.33333333333331,66.38333333333333,0
36020099999,RODINO,80.16666666666669,52.48333333333332,0
36092099999,TURAN,93.91666666666669,52.150000000000006,0
36104099999,SARYG-SEP,95.58333333333331,51.48333333333332,0
36229099999,UST'- KOKSA,85.61666666666667,50.28333333333333,0
37001099999,VITYAZEVO,37.3472721786361,45.00209716354857,0
72210963848,CANTON/CHEROKEE ARPT,-84.42400020116676,34.31099979883324,0
25703099999,SEJMCHAN,152.41666666666669,62.91666666666666,0
25913099999,SOKOL,150.72043854355263,59.91098873466103,0
26072099999,SHLISSEL'BURG,31.0,59.93333333333334,0
26078099999,LJUBAN',31.23333333333332,59.349999999999994,0
26094099999,TIHVIN,33.55000000000001,59.650000000000006,0
26157099999,GDOV,27.833333333333343,58.73333333333332,0
26179099999,NOVGOROD,31.25,58.51666666666668,0
26381099999,DEMJANSK,32.46666666666667,57.650000000000006,0
26478099999,PSKOV,28.400000000000006,57.78300040233353,0
37865099999,ORSK,58.595586401126525,51.0725055320861,0
26666099999,VITEBSK,30.349638905652796,55.12649969824986,0
72033493764,GAITHERSBURG MONTGOMERY COUNTY AIR PARK,-77.16666968416817,39.16666968416817,0
26997099999,TRUBCHEVSK,33.76666666666668,52.58333333333334,0
27066099999,NIKOL'SK,45.46666666666667,59.53333333333333,0
27113099999,CHEREPOVEC,38.01666666666668,59.26666666666668,0
27225099999,RYBINSK,38.68333333333334,58.099999999999994,0
27296099999,KUMENY,49.91666666666666,58.099999999999994,0
27373099999,SAKUN'JA,46.633333333333326,57.66666666666666,0
27491099999,NOVYJ TOR'JAL,48.73333333333332,57.0,0
27511099999,NOVO-JERUSALIM,36.81666666666666,55.900000000000006,0
33038099999,VASILEVICHI,29.833333333333343,52.25,0
72469499999,FRONT RANGE,-104.54313920740293,39.785250452625235,0
72687699999,GRANT RGNL OGILVIE FLD,-118.96666666666667,44.400000000000006,0
84026099999,GENERAL RIVADENEIRA,-79.63300040233354,-0.9830004023335306,0
71038099999,DOAKTOWN AUTO RCS,-66.01666666666667,46.599999999999994,0
99999903074,LAS CRUCES 20 N,-106.74140012070006,32.61370046268357,0
99999904130,ST. MARY 1 SSW,-113.43300040233353,48.74119995976665,0
99999904141,COOS BAY 8 SW,-124.31859987929994,43.2718004425669,0
99999904236,CORVALLIS 10 SSW,-123.32570006035003,44.41850030175016,0
99999927516,BARROW 4 ENE,-156.61099979883323,71.32129953731643,0
71882099999,REVELSTOKE A,-118.18333333333334,50.96666666666667,0
41170399999,DOHA,51.599999999999994,25.266666666666666,0
99401799999,NORTH SPIT,-124.21699959766647,40.766999597666455,0
99401999999,MONTEREY,-121.88800040233353,36.605000000000004,0
99407099999,DESTRUCTION IS.  WA,-124.49000000000001,47.68000000000001,0
99427099999,ISLE OF SHOALS  NH,-70.62,42.97,0
99469099999,DRIFT RIVER TERMINAL,-152.14,60.55000000000001,0
99707999999,THUNDER BAY ISLAND,-83.19400020116677,45.035,0
99717599999,PORT MOLLER,-160.57400020116677,66.98599979883323,0
99727399999,BORDEN FLATS LIGHT,-71.17,41.69999999999999,0
99999953155,WILLIAMS 35 NNW,-112.3373999195333,35.75520016093341,0
99999953878,ASHEVILLE 13 S,-82.55669985918327,35.41850030175016,0
99999954902,DES MOINES 17 E,-93.28549989941662,41.556199959766644,0
99999963829,NEWTON 11 SW,-84.44649969824985,31.19230034198351,0
99999963849,BOWLING GREEN 21 NNE,-86.23249949708308,37.250400321866834,0
99999963891,CLANTON 2 NE,-86.61149969824984,32.85160028163348,0
99728299999,MONTAUK,-71.97,41.05000000000001,0
99733999999,MICHIGAN CITY,-86.93,41.72999999999999,0
99999994074,NUNN 7 NNE,-104.75520016093341,40.80660028163348,0
99999964756,MILLBROOK 3 W,-73.74219975859988,41.785700060350024,0
99999992826,EVERGLADES CITY 5 NE,-81.31830014081673,25.89959967813317,0
99730699999,SPRINGMAID PIER,-78.92,33.650000000000006,0
99999993245,BODEGA 6 WSW,-123.0747002615168,38.320799637899825,0
99736899999,SABINE PASS NORTH,-93.87,29.730000000000004,0
99738299999,NIKISKI AK,-151.4,60.68000000000001,0
99769599999,JOHN MERCER PIER,-77.83,34.2,0
99772999999,GALVESTON BAY N JETY,-94.72,29.349999999999994,0
99773199999,GRAND TRAVERSE LIGHT,-85.55,45.19999999999999,0
99774199999,KEWAUNEE,-87.48333333333333,44.44999999999999,0
99774399999,ROBINS REEF,-74.06666666666666,40.650000000000006,0
99780399999,PORT WING,-91.38333333333334,46.78333333333333,0
99798899999,BIG BAY,-87.71666666666667,46.81666666666666,0
99799199999,HUDSON RIVER RESERVE,-73.91666666666667,42.01666666666668,0
99800899999,ROOKERY BAY RESERVE,-81.7,26.03333333333333,0
99818299999,ROLLOVER PASS,-94.5,29.516666666666666,0
99819199999,HILO,-155.05,19.71666666666667,0
99819299999,COAST GUARD SECTOR,-88.05,30.650000000000006,0
99819999999,PANAMA CITY,-85.66666666666667,30.150000000000006,0
99822699999,ROCKPORT,-97.05,28.016666666666666,0
99824599999,WILLOUGHBY DEGUASSING STATION,-76.31666666666666,36.983333333333334,0
99827199999,VALDEZ,-146.36666666666667,61.133333333333326,0
99832499999,BUOY 44058 / STRINGRAY POINT,-76.25099979883323,37.551999597666466,0
99834099999,SANTA BARBARA,-119.65800040233353,34.40800040233353,0
99843999999,CEDAR POINT,-88.14,30.308000402333533,0
99844299999,CUTLER FARRIS WHARF,-67.21,44.65699959766647,0
99847599999,MARTINEZ-AMORCO,-122.125,38.03300040233353,0
99847999999,SAN FRANCISCO (PIER 1),-122.39300040233354,37.79800040233353,0
99999923122,NORTON AAF,-117.25,34.099999999999994,0
69019013910,ABILENE DYESS AFB,-99.85,32.43300040233353,0
74490714753,EAST MILTON,-71.11400020116676,42.21199959766648,0
40780599999,KHORAM ABAD,48.28300040233353,33.43300040233353,0
62463999999,SHARM EL SHEIKH INT,34.38300040233352,27.966999597666472,0
62463999999,SHARM EL SHEIKH INT,34.38300040233352,27.966999597666472,0
40405099999,GASSIM,43.76666666666668,26.299999999999997,0
72096799999,FALSE RIVER RGNL,-91.47866928183464,30.718323274994972,0
40635699999,ERBIL INTL,43.96666666666667,36.233333333333334,0
47424099999,TOMAKOMAI,141.55,42.616666666666674,0
47435099999,MOMBETSU,143.35000000000002,44.349999999999994,0
47587099999,SAKATA,139.85000000000002,38.91666666666666,0
47668099999,AJIRO,139.10000000000002,35.05,0
47744099999,YONAGO,133.33333333333331,35.43333333333334,0
47769099999,HIMEJI,134.66666666666669,34.83333333333333,0
72098199999,DELTA (KIMBALL),-103.8,41.366666666666674,0
72098599999,HOTEL (GURLEY),-102.83333333333333,41.31666666666666,0
72057599999,INDIANAPOLIS EXECUTIVE,-86.25143934821968,40.030650774492045,0
06695099999,ANDERMATT,8.583333333333343,46.633333333333326,0
65376599999,DAPANGO,0.25,10.799999999999997,0
78644599999,ZACAPA,-89.53333333333333,14.966666666666669,0
48912599999,CAN THO,105.71666666666664,10.083333333333329,0
17057599999,CORLU,27.91699959766646,41.13300040233352,0
17067599999,EDREMIT KORFEZ,27.0,39.55000000000001,0
17273499999,MILAS BODRUM,27.66699959766646,37.25,0
17020099999,BARTIN,32.33333333333334,41.633333333333326,0
17072099999,DUZCE,31.166666666666657,40.83333333333334,0
17221099999,CESME,26.30000000000001,38.30000000000001,0
17246099999,KARAMAN,33.21666666666667,37.2,0
17380099999,KAS,29.650000000000006,36.2,0
41760099999,ORMARA,64.58837155501911,25.27331925165963,0
60660099999,ARAK,3.73333333333332,25.266666666666666,0
11129099999,PASSO DEL BRENNERO,11.5,47.0,0
62398099999,SOHAG INTL AIRPORT,31.73333333333332,26.33333333333333,0
70398525377,METLAKATLA SEAPLANE BASE,-131.57805974652987,55.13104003218669,0
70119526625,SHISHMAREF/NEW AIRPORT,-166.08936028968014,66.24957956145644,0
70121026624,POINT LAY LRRS AIRPORT,-163.0053299134983,69.73287970227318,0
12142099999,OKSYWIE,18.51666666666668,54.56666666666666,0
12560099999,KATOWICE,19.03333333333333,50.23333333333332,0
57067099999,LUSHI,111.06666666666666,34.08333333333333,0
02120599999,STORUMAN,17.69999999999999,64.94999999999999,0
02851099999,OULU OULUNSALO PELLONPAA,25.366666666666674,64.93333333333334,0
02863099999,KEMI I LIGHTHOUSE,24.099999999999994,65.38333333333333,0
02980099999,LEMLAND NYHAMN,19.94999999999999,59.96666666666667,0
02984099999,INKOO BAGASKAR,24.01666666666668,59.93333333333334,0
68267799999,PIETERSBURG,29.433333333333337,-23.86666666666666,0
47817099999,NAGASAKI,129.86666666666667,32.733333333333334,0
47892099999,UWAJIMA,132.55,33.233333333333334,0
47909099999,NAZE/FUNCHATOGE,129.5,28.38333333333334,0
16675099999,LAMIA,22.433333333333337,38.883333333333326,0
47041099999,HAMHEUNG,127.55000000000001,39.93333333333334,0
47046099999,SINPO,128.18333333333334,40.03333333333333,0
47050099999,ANJU,125.64999999999998,39.616666666666674,0
47058099999,PYONGYANG INTL,125.67014986924158,39.22406055119694,0
47075099999,PYONGGANG,127.28333333333336,38.41666666666666,0
76595099999,CANCUN INTL,-86.87708308187487,21.036527861597264,0
72093200317,BROOKHAVEN LINCOLN COUNTY AIRPORT,-90.40900020116676,31.60599979883324,0
72687300452,IDAHO COUNTY AIRPORT,-116.12340977670489,45.9425497887749,0
72047600455,HANNIBAL REGIONAL AIRPORT,-91.44386039026352,39.725159927579966,0
70489800113,ROBERT (BOB) CURTIS MEMORIAL AIRPORT,-161.02199959766648,66.81800040233352,0
34858099999,DIVNOE,43.349999999999994,45.91666666666666,0
06703099999,LES CHARBONNIERES,6.316666666666663,46.66666666666666,0
87270099999,RECONQUISTA AERO,-59.7,-29.18333333333333,0
02824099999,KITTILA KENTTAROVA,24.25,67.98333333333332,0
02866099999,PUDASJARVI AIRFIELD,26.96666666666667,65.41666666666666,0
02868099999,KUUSAMO RUKATUNTURI,29.150000000000006,66.16666666666666,0
02873099999,HAILUOTO MARJANIEMI,24.566666666666663,65.03333333333333,0
02991099999,PORVOO EMASALO,25.633333333333326,60.19999999999999,0
06608099999,CHAUMONT,6.98333333333332,47.05000000000001,0
26578099999,VELIZH,31.183333333333337,55.616666666666674,0
26784099999,POCHINOK,32.43333333333334,54.41666666666666,0
02705099999,PELKOSENNIEMI PYHATUNTURI,27.21666666666667,67.01666666666668,0
02714099999,VAALA PELSO,25.433333333333337,64.5,0
02733099999,LAPPEENRANTA KONNUNSUO,28.566666666666663,61.03333333333333,0
02777099999,SALO KIIKALA AIRFIELD,23.650000000000006,60.46666666666667,0
02788099999,KUOPIO MAANINKA,27.316666666666663,63.150000000000006,0
02799099999,KUHMO KALLIOJOKI,30.166666666666657,64.30000000000001,0
02907099999,KALAJOKI ULKOKALLA,23.44999999999999,64.33333333333334,0
40623099999,SULYMANIYAH,45.44999999999999,35.55,0
60740099999,MONASTIR-SKANES,10.75,35.66666666666667,0
67865099999,KWEKWE,29.833333333333343,-18.933333333333337,0
89578099999,DOME PLATEAU EAGLE,77.01999999999998,-76.42,0
06716099999,MOTTEC,7.616666666666674,46.150000000000006,0
99727299999,BERGEN POINT,-74.14599979883323,40.639000201166766,0
06721099999,BINN,8.183333333333337,46.366666666666674,0
06610099999,PAYERNE,6.949999999999989,46.81666666666666,0
72061200203,BEAUFORT COUNTY AIRPORT,-80.63429993964996,32.41210018105009,0
72092800315,DELAWARE MUNICIPAL JIM MOORE FIELD AIRPORT,-83.115,40.28,0
72049200151,CALEDONIA COUNTY AIRPORT,-72.01699959766647,44.56699959766647,0
72040400134,KICKAPOO DOWNTOWN AIRPORT,-98.48300040233353,33.849999999999994,0
72269100366,CLAXTON EVANS COUNTY AIRPORT,-81.87,32.2,0
72064900231,HALIFAX NORTHAMPTON REGIONAL AIRPORT,-77.635,36.33,0
72065100232,UNION COUNTY AIRPORT,-83.35199959766646,40.224999999999994,0
72310700371,SANTEE COOPER REGIONAL AIRPORT,-80.20900020116677,33.58699959766646,0
72528300465,CATTARAUGUS COUNTY OLEAN AIRPORT,-78.37135988734661,42.24122007644337,0
72103400351,CAMERON MUNICIPAL AIRPORT,-96.97099979883323,30.87900020116676,0
70305400108,SCAMMON BAY AIRPORT,-165.56699959766647,61.849999999999994,0
78990000413,FLAMINGO INTERNATIONAL AIRPORT,-68.28300040233353,12.150000000000006,0
99999900423,DE QUINCY INDUSTRIAL AIRPARK,-93.4736099376383,30.44105009052504,0
99999900480,EAGLE RANGE WSO,-113.06,41.05000000000001,0
37484099999,BATUMI,41.599694226513776,41.61027761013881,0
41862199999,RAJARHAT KURIGRAM,89.55000000000001,25.799999999999997,0
27215099999,KRASNYY KHOLM,37.099999999999994,58.03333333333333,0
27785099999,ULYANOVSK,48.33000000000001,54.31999999999999,0
61989099999,PLAINE CORAIL,63.370000000000005,-19.75,0
31510099999,BLAGOVESCENSK,127.48333333333335,50.28333333333333,0
08583099999,MINDELO,-25.05000000000001,16.83333333333333,0
71168099999,SIOUX FALLS CLIMATE,-96.63333333333334,43.73333333333332,0
01017099999,AKSELOYA,14.783333333333331,77.68333333333334,0
01027099999,TROMSO-HOLT,18.900000000000006,69.65,0
01068099999,HONNINGSVAG/VALAN,25.98333333333332,71.01666666666668,0
01083099999,BERLEVAG,29.03333333333333,70.86666666666667,0
89664087601,NSFA MCMURDO SOUND,166.73333031583184,-77.88333031583183,0
01099099999,VARDO AP / SVARTNES,31.044889358278,70.35539227519612,0
01143099999,DRAG-AJLUOKTA,16.083333333333343,68.05000000000001,0
01152099999,BODO,14.365277610138804,67.2691671695836,0
01160099999,SKROVA FYR,14.650000000000006,68.15,0
01210099999,VIGRA,6.110163950915307,62.560372158519414,0
01217099999,ARO,7.262500502916907,62.74472238986118,0
01221099999,TAGDALEN,9.083333333333343,63.05000000000001,0
01224099999,AALESUND,6.216666666666669,62.46666666666667,0
01240099999,HALTEN FYR,9.400000000000006,64.16666666666666,0
01241099999,ORLAND,9.604003218668282,63.69890766445383,0
01288099999,ROROS,11.383333333333326,62.56666666666666,0
01323099999,BRINGELAND,5.764167169583573,61.39250251458458,0
01342099999,ULLENSVANG,6.650000000000006,60.31666666666666,0
01347099999,SOGNDAL HAUKASEN,7.136614363307189,61.15611144638905,0
01350099999,FINSEVATN,7.533333333333331,60.599999999999994,0
01355099999,LAERDAL IV,7.5,61.099999999999994,0
01422099999,FISTER SIGMUNDSTAD,6.033333333333331,59.16666666666666,0
01452099999,KJEVIK,8.085369141017907,58.20421444377388,0
01471099999,VEGGLI II,9.150000000000006,60.05000000000001,0
01476099999,JOMFRULAND FYR,9.550000000000011,58.849999999999994,0
01485099999,DANDE-GALLEBERG,10.216666666666669,59.616666666666674,0
01486099999,ASKER,10.433333333333337,59.849999999999994,0
01488099999,HAKADAL,10.833333333333343,60.116666666666674,0
01489099999,BJORNHOLT,10.683333333333337,60.05000000000001,0
02049099999,GALLIVARE,20.814635888151287,67.13240796620397,0
02072099999,PARKALOMPOLO,22.833333333333343,67.73333333333332,0
02081099999,KARESUANDO,22.44999999999999,68.44999999999999,0
02110099999,GIELAS,15.066666666666663,65.33333333333334,0
78535011630,NAVAL STATION ROOSEVELT ROADS, CEIBA,-65.6408298129149,18.254999999999995,0
78016013601,NAVAL ATLANTIC METEROLOGY & OCEANOGRAPHY FACILITY,-64.68333031583182,32.36666968416817,0
99999913917,NEWPORT MUNICIPAL AIRPORT,-91.16666968416817,35.63333031583183,0
01002099999,VERLEGENHUKEN,16.25,80.05000000000001,0
01009099999,KARL XII OYA,25.0,80.65,0
02605099999,HALLANDS VADERO,12.550000000000011,56.44999999999999,0
02632099999,UTKLIPPAN,15.699999999999989,55.94999999999999,0
02664099999,RONNEBY,15.264999999999986,56.26666666666668,0
02679099999,HOBURG A,18.150000000000006,56.91666666666666,0
02734099999,PARIKKALA KOITSANLAHTI,29.46666666666667,61.44999999999999,0
02882099999,KITTILA MATOROVA,24.23333333333332,68.0,0
02929099999,JOENSUU,29.60754978877489,62.662905853952935,0
02947099999,MIKKELI,27.20179440756388,61.686600281633474,0
02974099999,HELSINKI VANTAA,24.96333333333334,60.31722188694428,0
03014099999,FOULA NO2,-2.066666666666663,60.116666666666674,0
03018099999,WOODVALE,-3.0555220277610147,53.581575135787574,0
03023099999,SOUTH UIST RANGE,-7.366666666666674,57.33333333333334,0
03026099999,STORNOWAY,-6.331111446389059,58.21555622611146,0
03031099999,LOCH GLASCARNOCH,-4.883333333333326,57.71666666666667,0
03062099999,TAIN RANGE (SAWS),-3.9666666666666686,57.81666666666666,0
03066099999,KINLOSS,-3.5606356869845115,57.649386441359894,0
03075099999,WICK,-3.0930557231945386,58.45888855361093,0
03100099999,TIREE,-6.869167169583591,56.499167169583586,0
03132099999,WEST FREUGH (AUT),-4.949999999999989,54.849999999999994,0
03140099999,GLASGOW,-4.433055723194542,55.871944276805465,0
03140899999,RAVENSPURN N OIL PLATFORM,1.0999999999999943,54.01666666666668,0
03153099999,DUNDRENNAN,-4.0,54.80000000000001,0
02170099999,SAVAST,21.76666666666668,65.75,0
02181099999,OVERKALIX SVARTBYN,22.849999999999994,66.26666666666668,0
02191099999,STORON,23.099999999999994,65.69999999999999,0
02209099999,SYLARNA,12.283333333333331,63.05000000000001,0
02210099999,BLAHAMMAREN,12.166666666666657,63.18333333333334,0
02217099999,ARE,13.166666666666657,63.366666666666674,0
02221099999,KORSVATTNET,13.5,63.83333333333334,0
02247099999,KRANGEDE,16.166666666666657,63.150000000000006,0
02254099999,ASELE,17.316666666666663,64.16666666666666,0
02269099999,SKAGSUDDE,19.01666666666668,63.18333333333334,0
02282099999,PETISTRASK,19.69999999999999,64.56666666666666,0
02329099999,HAMRA,15.0,61.66666666666666,0
02343099999,TORPSHAMMAR,16.28333333333333,62.5,0
02403099999,NAVEN,13.116666666666674,58.69999999999999,0
02407099999,MALUNG A,13.699999999999989,60.68333333333334,0
02418099999,KARLSTAD,13.337360692013675,59.4447143431905,0
02431099999,KLOTEN,15.25,59.866666666666674,0
02453099999,GAVLE/SANDVIKEN AIR FORCE BASE,17.166666666666657,60.71666666666667,0
02456099999,FILM,17.900000000000006,60.23333333333332,0
02485399999,SKAVSTA,16.91218869442767,58.78863608931803,0
02489099999,BERGA,18.116666666666674,59.06666666666666,0
02490099999,SVANBERGA,18.633333333333326,59.83333333333334,0
02501099999,VADEROARNA,11.066666666666663,58.58333333333334,0
02518099999,NIDINGEN,11.900000000000006,57.30000000000001,0
02520099999,SATENAS,12.714389458861405,58.4264453832227,0
02521099999,BERGARUD,12.416666666666657,58.599999999999994,0
02536099999,RANGEDALA,13.166666666666657,57.78333333333333,0
02540099999,KROPPEFJALL-GRANAN,12.199999999999989,58.599999999999994,0
02545099999,AXSTAL,14.566666666666663,58.56666666666666,0
